City,Cloudiness (%),Country,Date,Humidity (%),Latitude,Longitude,Max Temp (F),Wind Speed (mph)
Cape Town,0,ZA,1571347346,88,-33.93,18.42,64.99,5.99
Mar del Plata,0,AR,1571347347,21,-46.43,-67.52,67.7,16.71
Weihe,94,CN,1571347349,95,32.99,105.33,47.4,2.57
Kazachinskoye,98,RU,1571347351,87,57.69,93.28,39.89,7.76
Atuona,3,PF,1571347352,76,-9.8,-139.03,79.96,19.8
Nikolskoye,90,RU,1571347357,86,59.7,30.79,41.0,4.47
Tuktoyaktuk,75,CA,1571347359,79,69.44,-133.03,23.0,13.87
Katsuura,75,JP,1571347361,88,33.93,134.5,66.99,5.82
Carnarvon,100,ZA,1571347362,56,-30.97,22.13,66.39,13.22
Rafaela,88,AR,1571347364,65,-31.25,-61.49,69.01,3.0
Port-Cartier,90,CA,1571347366,65,50.03,-66.88,48.0,12.75
Pisco,0,PE,1571347367,30,-13.71,-76.2,71.6,9.17
Healdsburg,20,US,1571347369,35,38.61,-122.87,73.0,13.87
Bluff,24,AU,1571347371,82,-23.58,149.07,71.57,1.99
Rikitea,17,PF,1571347372,80,-23.12,-134.97,71.91,9.15
Merauke,0,ID,1571347374,81,-8.49,140.4,76.31,22.26
Punta Arenas,40,CL,1571347376,54,-53.16,-70.91,50.0,31.09
Georgetown,40,GY,1571347377,74,6.8,-58.16,86.0,11.41
Bonavista,97,CA,1571347379,87,48.65,-53.11,46.0,5.99
Castro,90,CL,1571347381,87,-42.48,-73.76,51.8,3.36
Narsaq,100,GL,1571347382,60,60.91,-46.05,41.0,1.12
Thompson,90,CA,1571347384,74,55.74,-97.86,39.2,6.93
Jamestown,24,AU,1571347386,48,-33.21,138.6,47.85,7.61
Quetigny,90,FR,1571347387,100,47.31,5.12,59.0,4.7
Cassia,1,US,1571347389,57,28.89,-81.47,84.2,5.82
Ushuaia,40,AR,1571347391,61,-54.81,-68.31,50.0,8.05
Mount Gambier,75,AU,1571347394,87,-37.83,140.78,48.2,13.87
Kasulu,20,TZ,1571347395,83,-4.57,30.11,73.4,3.65
Bonfim,73,GY,1571347397,44,3.36,-59.84,92.15,10.63
Chokurdakh,98,RU,1571347399,96,70.62,147.9,13.79,9.22
Simbahan,69,PH,1571347400,71,6.3,120.58,83.15,7.56
Albany,90,US,1571347402,76,42.65,-73.75,51.8,17.22
Yulara,0,AU,1571347404,39,-25.24,130.99,60.8,6.93
New Norfolk,20,AU,1571347405,54,-42.78,147.06,54.0,9.17
Aklavik,75,CA,1571347407,85,68.22,-135.01,23.0,3.36
Arraial do Cabo,0,BR,1571347409,78,-22.97,-42.02,78.8,18.34
Hede,100,SE,1571347412,100,60.45,15.49,42.01,5.82
Hilo,20,US,1571347414,58,19.71,-155.08,84.2,6.93
Ellisras,0,ZA,1571347415,28,-23.67,27.74,70.71,7.72
Ilulissat,75,GL,1571347417,53,69.22,-51.1,26.6,1.12
Norman Wells,90,CA,1571347419,84,65.28,-126.83,32.0,5.82
Hobart,20,AU,1571347420,54,-42.88,147.33,54.0,9.17
Richards Bay,0,ZA,1571347424,72,-28.77,32.06,71.01,25.32
Lebu,20,ET,1571347425,54,8.96,38.73,59.0,3.36
Sao Filipe,100,CV,1571347427,82,14.9,-24.5,81.36,7.45
Mali,98,CN,1571347429,93,27.53,102.2,45.83,1.63
Esperance,90,AU,1571347430,93,-33.86,121.89,51.8,4.7
Tarnogskiy Gorodok,100,RU,1571347432,93,60.5,43.58,34.04,8.08
Potenza,7,IT,1571347434,65,40.64,15.8,57.17,2.86
Broome,0,GB,1571347435,100,52.47,1.45,54.0,6.93
Omboue,100,GA,1571347437,86,-1.57,9.26,78.95,11.14
Gbarnga,8,LR,1571347439,99,7.0,-9.47,71.81,2.95
Avarua,100,CK,1571347440,74,-21.21,-159.78,78.8,13.87
Kapaa,40,US,1571347442,78,22.08,-159.32,84.2,14.99
Cururupu,12,BR,1571347444,70,-1.82,-44.87,79.62,4.63
Ambilobe,10,MG,1571347445,68,-13.19,49.05,75.86,11.56
Barrow,100,AR,1571347447,96,-38.31,-60.23,54.42,0.63
Upernavik,100,GL,1571347449,68,72.79,-56.15,30.28,5.28
Victoria,75,BN,1571347450,94,5.28,115.24,78.8,2.53
Mataura,0,NZ,1571347452,75,-46.19,168.86,51.01,10.0
Lamu,0,CN,1571347454,32,35.77,102.37,36.22,1.05
Kodiak,1,US,1571347455,40,39.95,-94.76,69.01,11.41
Hithadhoo,100,MV,1571347457,77,-0.6,73.08,82.41,13.09
Hermanus,0,ZA,1571347459,91,-34.42,19.24,62.01,1.01
Yellowknife,90,CA,1571347460,89,62.45,-114.38,33.8,8.05
Qaanaaq,100,GL,1571347464,85,77.48,-69.36,13.18,11.07
Port Elizabeth,90,US,1571347465,47,39.31,-74.98,60.01,16.11
Sebrovo,57,RU,1571347467,81,50.1,43.3,39.0,8.03
Pacific Grove,1,US,1571347473,52,36.62,-121.92,72.0,16.11
Fort-Shevchenko,0,KZ,1571347475,58,44.51,50.26,64.81,14.54
Fukue,75,JP,1571347477,93,35.03,136.69,64.99,12.75
Baghdad,90,IQ,1571347478,39,33.3,44.38,82.4,5.82
Margate,20,AU,1571347480,54,-43.03,147.26,54.0,9.17
Butaritari,19,KI,1571347482,69,3.07,172.79,83.87,9.26
Nanortalik,100,GL,1571347483,77,60.14,-45.24,39.03,2.71
Araouane,0,ML,1571347485,17,18.9,-3.53,91.82,8.88
Lompoc,1,US,1571347487,40,34.64,-120.46,80.01,16.11
Hambantota,100,LK,1571347490,90,6.12,81.12,77.5,6.53
Vaini,79,IN,1571347492,92,15.34,74.49,75.26,2.21
Vostochnyy,40,RU,1571347493,71,55.82,37.87,57.2,11.18
Oriximina,77,BR,1571347495,50,-1.77,-55.87,90.81,4.54
Kristiansund,75,NO,1571347497,70,63.12,7.73,46.4,9.17
Wyndham,20,GB,1571347498,81,51.61,-3.54,53.6,10.29
Perpignan,0,FR,1571347500,93,42.7,2.88,63.0,4.7
Obigarm,0,TJ,1571347502,71,38.72,69.71,31.02,1.43
Psebay,0,RU,1571347503,37,44.12,40.81,51.74,7.47
Mocuba,49,MZ,1571347505,87,-16.84,36.99,68.82,3.38
Fort Nelson,90,CA,1571347507,88,58.81,-122.69,33.8,4.7
Saskylakh,7,RU,1571347508,96,71.97,114.09,-3.08,4.43
Prince Rupert,40,CA,1571347510,81,54.32,-130.32,51.8,10.29
San Cristobal,39,HN,1571347512,47,14.68,-86.92,85.23,4.27
Nieuwpoort,20,BE,1571347513,87,51.13,2.75,57.2,9.17
Saint-Denis,75,FR,1571347515,87,48.94,2.36,59.0,16.11
Vila Franca do Campo,20,PT,1571347517,68,37.72,-25.43,71.01,6.93
Bekhtery,0,UA,1571347518,74,46.25,32.3,62.43,6.31
Namibe,5,AO,1571347520,87,-15.19,12.15,71.36,1.32
San Juan,1,AR,1571347522,35,-31.54,-68.53,53.34,7.11
Nouadhibou,0,MR,1571347523,51,20.93,-17.03,84.2,18.34
Busselton,0,AU,1571347525,72,-33.64,115.35,45.0,17.67
Morbegno,75,IT,1571347527,87,46.13,9.57,57.2,4.7
Misratah,0,LY,1571347528,67,32.38,15.09,74.9,10.22
Lusambo,3,CD,1571347530,94,-4.97,23.44,69.5,0.98
Sao Joao da Barra,0,BR,1571347532,73,-21.64,-41.05,78.8,13.87
Otradnoye,90,RU,1571347533,86,59.77,30.8,41.0,4.47
Chuy,100,UY,1571347535,95,-33.69,-53.46,60.36,18.92
Puerto Ayora,90,EC,1571347537,61,-0.74,-90.35,77.0,12.75
Chumikan,20,RU,1571347538,80,54.72,135.31,27.33,8.23
Naco,40,MX,1571347540,26,31.32,-109.94,84.99,12.75
Provideniya,90,RU,1571347542,80,64.42,-173.23,30.2,5.55
Iqaluit,75,CA,1571347543,98,63.75,-68.52,32.0,6.93
Nishihara,90,JP,1571347545,93,35.74,139.53,63.0,5.82
Geraldton,75,CA,1571347547,60,49.72,-86.95,39.2,8.05
Bredasdorp,0,ZA,1571347548,87,-34.53,20.04,62.01,1.12
Ponta do Sol,84,BR,1571347550,53,-20.63,-46.0,77.6,3.02
Torbay,75,CA,1571347552,81,47.66,-52.73,46.0,12.75
Quimper,52,FR,1571347553,87,48.0,-4.1,57.2,10.29
Estelle,75,FR,1571347555,93,43.97,3.47,66.2,16.11
Orbetello,0,IT,1571347557,87,42.44,11.21,57.0,4.7
Kirakira,61,SB,1571347558,82,-10.46,161.92,80.43,13.71
Mount Pleasant,1,US,1571347560,42,33.16,-94.97,71.6,3.36
Faya,40,SA,1571347562,45,18.39,42.45,68.0,16.11
Conde,17,BR,1571347563,74,-11.81,-37.61,71.23,4.65
Sampit,99,ID,1571347565,93,-2.54,112.95,74.76,0.87
Seoul,75,KR,1571347567,93,37.57,126.98,53.6,3.36
Saint George,20,GR,1571347568,88,39.45,22.34,64.4,1.57
Avera,1,US,1571347570,26,33.19,-82.53,73.99,8.05
Coquimbo,0,CL,1571347572,52,-29.95,-71.34,64.4,13.87
Sao Felix do Xingu,100,BR,1571347574,59,-6.64,-51.99,84.23,3.09
Saint-Philippe,90,CA,1571347577,93,45.36,-73.48,46.4,19.46
Navirai,97,BR,1571347579,67,-23.07,-54.19,78.27,6.29
Tutoia,4,BR,1571347580,71,-2.76,-42.27,78.75,8.08
Atar,30,MR,1571347582,27,20.52,-13.05,92.92,19.77
Port Alfred,67,ZA,1571347584,90,-33.59,26.89,66.99,7.0
Pangnirtung,90,CA,1571347585,86,66.15,-65.72,33.8,2.24
Dombarovskiy,94,RU,1571347587,67,50.76,59.54,39.87,11.68
Saint-Francois,0,FR,1571347589,93,46.42,3.91,55.4,3.36
Ruteng,0,ID,1571347590,93,-8.61,120.46,69.83,3.2
Khatanga,65,RU,1571347592,96,71.98,102.47,4.0,2.06
Khorinsk,0,RU,1571347595,67,52.16,109.78,29.67,4.18
Oranjemund,56,ZA,1571347597,90,-28.55,16.43,59.39,12.19
Bellegarde-sur-Valserine,100,FR,1571347599,93,46.11,5.83,59.0,3.36
Samfya,51,ZM,1571347600,39,-11.37,29.56,76.36,7.31
Lavrentiya,29,RU,1571347602,93,65.58,-170.99,22.11,2.82
Constitucion,75,MX,1571347605,45,23.99,-104.67,80.6,4.7
Souillac,0,FR,1571347607,93,45.6,-0.6,57.2,9.17
Plouzane,25,FR,1571347609,82,48.38,-4.62,57.2,21.92
Lata,4,IN,1571347610,86,30.78,78.62,25.02,1.48
Half Moon Bay,1,US,1571347612,63,37.46,-122.43,70.0,17.22
Sokolo,68,ML,1571347614,27,14.74,-6.12,89.65,2.86
Mount Isa,23,AU,1571347615,22,-20.73,139.49,75.2,10.29
Santiago del Estero,0,AR,1571347617,39,-27.8,-64.26,75.03,9.51
Hasaki,75,JP,1571347623,87,35.73,140.83,61.0,9.17
Vetlanda,100,SE,1571347625,100,57.43,15.09,53.6,4.7
Neryungri,100,RU,1571347626,91,56.66,124.71,26.65,6.17
Alice Springs,0,AU,1571347628,33,-23.7,133.88,53.6,9.91
Ratnapura,79,IN,1571347630,93,17.9,77.63,71.29,4.41
Volgodonsk,0,RU,1571347631,76,47.51,42.17,53.56,9.06
Vestmannaeyjar,67,IS,1571347633,64,63.44,-20.27,43.38,7.74
Ahuimanu,75,US,1571347635,66,21.44,-157.84,87.8,11.41
Ustye,100,RU,1571347636,95,58.76,27.79,49.95,3.44
Ribeira Grande,40,PT,1571347638,68,38.52,-28.7,66.2,4.7
Samarai,100,PG,1571347640,86,-10.62,150.67,73.91,7.81
Mehamn,0,NO,1571347641,68,71.03,27.85,28.4,16.11
Kahului,40,US,1571347643,54,20.89,-156.47,84.2,11.41
Port Hedland,0,AU,1571347645,64,-20.31,118.58,69.8,8.05
Griffith,0,AU,1571347646,65,-34.29,146.06,46.4,2.75
Mackay,20,CA,1571347648,47,53.65,-115.58,55.4,10.29
Cabo San Lucas,20,MX,1571347650,66,22.89,-109.91,91.0,11.41
Luau,1,CD,1571347653,77,-10.7,22.23,69.36,4.29
Tiksi,0,RU,1571347655,87,71.64,128.87,2.97,7.7
Urucara,39,BR,1571347656,52,-2.54,-57.76,89.88,3.44
Tadine,31,NC,1571347658,60,-21.55,167.88,70.6,7.09
Longyearbyen,40,NO,1571347660,79,78.22,15.63,24.8,5.82
Dosso,3,NE,1571347663,33,13.05,3.19,90.26,3.69
Vanavara,77,RU,1571347665,90,60.35,102.28,37.79,9.01
Touros,40,BR,1571347666,74,-5.2,-35.46,78.8,12.75
Clyde River,90,CA,1571347668,100,70.47,-68.59,30.2,24.16
Semenivka,52,UA,1571347670,78,52.18,32.58,50.48,6.62
Sorong,58,ID,1571347673,93,-0.86,131.25,73.93,0.78
Pataias,90,PT,1571347674,100,39.67,-8.99,66.99,10.29
San Patricio,78,PY,1571347676,91,-26.98,-56.83,72.1,9.98
Broken Hill,0,AU,1571347678,26,-31.97,141.45,57.2,6.93
Prado,47,CO,1571347679,52,3.75,-74.93,87.25,1.45
Vostok,0,RU,1571347681,73,46.45,135.83,30.82,3.49
Songjianghe,12,CN,1571347683,76,42.18,127.48,39.05,2.46
Arman,0,RU,1571347685,59,59.7,150.17,16.96,7.31
Laguna,40,BZ,1571347686,59,16.17,-88.94,91.4,4.7
Svarstad,90,NO,1571347688,100,59.4,9.97,48.0,4.7
Fairbanks,75,US,1571347690,57,64.84,-147.72,33.8,3.36
Rock Sound,33,BS,1571347691,74,24.9,-76.2,82.37,7.09
Ladan,75,UA,1571347693,67,50.51,32.59,55.03,2.95
Khasan,17,RU,1571347695,88,42.43,130.64,42.31,2.06
Minab,0,IR,1571347696,78,27.15,57.07,84.2,4.7
Mangrol,0,IN,1571347698,67,25.33,76.51,73.18,5.21
Pokosnoye,100,RU,1571347700,82,55.53,101.05,38.63,3.38
Jonesboro,1,US,1571347701,45,35.84,-90.7,64.99,1.14
Ketchikan,90,US,1571347705,100,55.34,-131.65,48.2,8.05
La Asuncion,46,AR,1571347706,56,-26.05,-65.39,58.9,6.29
Gravdal,40,NO,1571347708,81,59.79,5.78,51.8,9.17
Dunedin,85,NZ,1571347710,71,-45.87,170.5,48.99,10.0
Portland,90,US,1571347711,93,43.66,-70.25,48.99,9.17
Wagar,100,US,1571347715,64,31.44,-87.99,66.99,4.79
Tasiilaq,17,GL,1571347716,49,65.61,-37.64,32.0,2.68
Kavieng,100,PG,1571347718,75,-2.57,150.8,83.42,15.17
Grand Gaube,40,MU,1571347720,64,-20.01,57.66,71.6,12.75
Kenai,90,US,1571347724,86,60.55,-151.26,37.4,4.56
Ivanishchi,80,RU,1571347726,90,55.77,40.43,52.11,8.57
Sisimiut,100,GL,1571347728,56,66.94,-53.67,37.68,6.67
Baculin,73,PH,1571347729,90,7.45,126.58,72.38,3.27
Kaitangata,9,NZ,1571347731,68,-46.28,169.85,47.65,10.25
Oroville,1,US,1571347736,30,39.51,-121.56,72.0,9.17
Islamkot,0,PK,1571347738,37,24.7,70.18,85.72,7.81
Cidreira,100,BR,1571347739,92,-30.17,-50.22,69.59,16.69
Isangel,75,VU,1571347741,83,-19.55,169.27,71.6,3.36
Ambon,75,FR,1571347743,77,47.55,-2.56,60.8,20.8
Tongchuan,0,CN,1571347744,100,34.9,108.95,41.0,2.24
Bardstown,1,US,1571347746,54,37.81,-85.47,62.6,4.7
Lipin Bor,100,RU,1571347748,88,60.26,37.97,35.03,10.71
Evensk,43,RU,1571347751,65,61.92,159.24,14.4,11.25
Harper,90,US,1571347753,13,30.3,-99.24,80.6,4.7
Klaksvik,100,FO,1571347756,100,62.23,-6.59,44.6,10.29
Nara,75,JP,1571347758,77,34.68,135.8,69.8,8.05
Greystones,0,IE,1571347759,87,53.14,-6.06,48.0,5.82
Crossville,1,US,1571347761,47,35.95,-85.03,63.0,4.7
Hami,49,CN,1571347763,40,42.84,93.51,51.65,4.34
Gizo,20,IL,1571347764,83,31.8,34.94,75.99,3.36
Verkhnyaya Inta,0,RU,1571347766,88,65.99,60.32,19.25,3.06
Comarapa,1,BO,1571347768,44,-17.91,-64.53,73.28,9.62
Nicoya,40,CR,1571347769,70,10.15,-85.45,86.0,11.41
Koumac,18,NC,1571347771,73,-20.56,164.28,71.91,9.08
Talaya,75,RU,1571347773,100,55.79,84.89,36.0,8.95
Padang,100,ID,1571347774,88,-0.92,100.36,77.64,13.22
Chapleau,75,CA,1571347776,69,47.85,-83.4,39.2,8.05
Haines Junction,100,CA,1571347778,78,60.75,-137.51,27.13,3.22
East London,63,ZA,1571347779,37,-33.02,27.91,74.78,8.61
Antofagasta,75,CL,1571347781,72,-23.65,-70.4,60.8,18.34
Santa Isabel do Rio Negro,100,BR,1571347784,76,-0.41,-65.02,79.37,3.13
Niquero,18,CU,1571347786,63,20.04,-77.58,84.89,2.53
Kalmunai,99,LK,1571347788,94,7.42,81.82,73.84,2.89
Mahebourg,40,MU,1571347789,64,-20.41,57.7,71.6,12.75
Faanui,10,PF,1571347791,81,-16.48,-151.75,79.64,13.24
Liverpool,20,GB,1571347793,93,53.41,-2.98,52.0,6.93
Kruisfontein,100,ZA,1571347794,70,-34.0,24.73,67.61,2.15
Gold Coast,0,AU,1571347796,68,-28.0,153.41,73.0,10.29
Marienburg,40,DE,1571347798,93,52.12,9.98,59.0,8.05
Kardamaina,20,GR,1571347799,88,36.78,27.14,68.0,5.82
Porto Novo,20,BR,1571347801,73,-23.68,-45.44,75.2,14.99
Carballo,20,ES,1571347803,82,43.21,-8.69,60.01,6.93
Tongren,23,CN,1571347804,94,27.72,109.18,49.61,0.69
Phonhong,0,LA,1571347806,96,18.5,102.42,68.15,0.96
San Jose,1,HN,1571347808,52,14.25,-87.96,87.8,14.99
La Seyne-sur-Mer,75,FR,1571347810,88,43.1,5.88,68.0,4.7
Mendi,0,ET,1571347811,94,9.8,35.1,62.48,2.06
Barentu,100,ER,1571347813,56,15.11,37.59,80.63,2.1
New Glasgow,67,CA,1571347815,94,45.59,-62.65,57.0,14.0
Mecca,0,SA,1571347816,53,21.43,39.83,84.21,4.29
Teguise,40,ES,1571347818,78,29.06,-13.56,71.6,9.17
Bambous Virieux,40,MU,1571347820,64,-20.34,57.76,71.6,12.75
Nikolayevsk-na-amure,0,RU,1571347821,62,53.14,140.72,32.42,8.14
Leningradskiy,100,RU,1571347823,89,69.38,178.42,34.87,13.44
Jasper,1,US,1571347825,36,33.83,-87.28,66.99,6.93
Tessalit,9,ML,1571347826,17,20.2,1.01,85.63,9.57
Shirpur,0,IN,1571347828,64,21.35,74.88,76.92,3.0
Tual,100,ID,1571347830,86,-5.67,132.75,79.75,16.11
Bacolod,100,PH,1571347831,85,10.68,122.95,78.68,12.68
Florianopolis,75,BR,1571347833,94,-27.6,-48.55,75.0,5.82
Port Moresby,40,PG,1571347835,100,-9.47,147.16,69.8,3.36
Pevek,100,RU,1571347836,97,69.7,170.27,31.94,13.91
Vardo,75,US,1571347838,50,39.62,-77.74,55.0,24.16
Ambovombe,0,MG,1571347840,77,-25.18,46.09,70.82,31.74
Rocha,100,UY,1571347841,96,-34.48,-54.34,59.46,16.08
Ranong,20,TH,1571347843,100,9.96,98.62,77.0,4.59
Ouadda,100,CF,1571347845,91,8.07,22.4,67.83,4.56
Haselunne,75,DE,1571347848,93,52.67,7.48,57.2,2.24
Ampanihy,0,MG,1571347849,70,-24.69,44.75,66.62,10.85
Ahipara,66,NZ,1571347853,82,-35.17,173.16,59.14,20.09
Svetlogorsk,40,RU,1571347854,69,53.14,59.15,37.4,20.13
Serdobsk,63,RU,1571347856,71,52.46,44.21,47.04,12.08
Henties Bay,0,NA,1571347858,91,-22.12,14.28,63.0,4.0
Katherine,0,AU,1571347859,61,-14.47,132.26,77.0,3.36
Flinders,20,AU,1571347861,44,-34.58,150.85,61.0,12.75
Marabba,85,SD,1571347863,67,12.35,32.18,81.44,6.82
Bialogard,64,PL,1571347864,10,54.01,15.99,59.0,7.47
Talnakh,0,RU,1571347866,78,69.49,88.39,10.4,29.08
Havelock,1,US,1571347868,37,34.88,-76.9,66.2,14.99
Hay River,90,CA,1571347869,80,60.82,-115.79,39.2,6.93
Garowe,100,SO,1571347871,77,8.41,48.48,74.33,15.26
Saint-Joseph,0,FR,1571347873,93,43.56,6.97,62.6,3.36
Dakar,20,SN,1571347875,94,14.69,-17.45,84.2,6.93
Augusto Correa,24,BR,1571347876,71,-1.02,-46.63,80.32,5.26
Pochutla,75,MX,1571347878,74,15.74,-96.47,86.0,11.41
Jorpeland,40,NO,1571347880,81,59.02,6.04,52.0,9.17
Mahuva,73,IN,1571347881,56,21.09,71.76,80.52,8.23
Alofi,100,NU,1571347883,88,-19.06,-169.92,73.4,13.87
Borogontsy,99,RU,1571347885,93,62.67,131.17,23.69,4.5
Kaifeng,0,CN,1571347888,100,34.8,114.35,44.6,3.85
Smidovich,0,RU,1571347889,71,48.6,133.81,35.63,6.15
Chapais,90,CA,1571347891,93,49.78,-74.86,42.8,10.29
Tuatapere,0,NZ,1571347893,73,-46.13,167.69,52.0,11.99
Bulgan,26,MN,1571347894,52,48.81,103.53,35.52,4.54
Albanel,90,CA,1571347896,100,48.88,-72.44,42.8,8.05
Onufriyivka,0,UA,1571347898,53,48.91,33.45,59.22,3.53
Plettenberg Bay,100,ZA,1571347899,92,-34.05,23.37,62.32,2.95
Los Andes,0,CL,1571347901,37,-32.83,-70.6,69.8,17.22
Ostrovnoy,0,RU,1571347903,86,68.05,39.51,24.81,7.31
Taoudenni,35,ML,1571347904,26,22.68,-3.98,91.81,9.55
Vsevolozhsk,90,RU,1571347906,86,60.02,30.65,41.0,4.47
Airai,5,TL,1571347908,71,-8.93,125.41,69.07,3.89
Ixtapa,90,MX,1571347909,74,20.71,-105.21,86.0,9.17
Gobabis,2,NA,1571347911,20,-22.45,18.97,66.79,2.01
Necochea,100,AR,1571347913,97,-38.55,-58.74,55.99,5.99
Conchas,16,BR,1571347914,59,-23.02,-48.01,77.24,4.74
Yangambi,100,CD,1571347918,86,0.77,24.47,71.39,1.28
Terenos,0,BR,1571347919,43,-20.44,-54.87,87.8,5.82
Aswan,0,EG,1571347921,31,24.09,32.9,87.8,8.05
Zmeinogorsk,99,RU,1571347923,90,51.15,82.2,34.69,13.35
Arkhipo-Osipovka,0,RU,1571347926,53,44.37,38.53,60.56,2.62
Maningrida,73,AU,1571347928,95,-12.05,134.23,70.64,6.02
Garden City,20,US,1571347929,41,43.62,-116.24,60.01,11.41
Samut Sakhon,75,TH,1571347933,83,13.55,100.27,82.99,5.82
Irbeyskoye,100,RU,1571347934,81,55.64,95.45,39.39,14.09
Bukama,0,CD,1571347937,80,-9.2,25.85,70.1,3.67
Nabire,98,ID,1571347939,97,-3.36,135.5,69.56,1.36
Edmundston,90,CA,1571347941,93,47.36,-68.33,48.2,21.92
Kropotkin,0,RU,1571347943,61,45.43,40.58,61.0,6.62
Methoni,0,GR,1571347946,88,36.82,21.7,70.0,4.7
Molteno,40,ZA,1571347947,40,-31.4,26.36,62.82,5.17
Luganville,75,VU,1571347951,88,-15.51,167.18,77.0,9.17
Rawson,20,AR,1571347952,19,-43.3,-65.11,69.68,15.86
Egvekinot,97,RU,1571347954,95,66.32,-179.17,19.39,10.47
Tazovskiy,0,RU,1571347956,79,67.47,78.7,18.74,23.67
Banda Aceh,100,ID,1571347957,84,5.56,95.32,80.46,20.65
Tilichiki,0,RU,1571347959,78,60.47,166.1,23.95,7.25
Oistins,20,BB,1571347961,78,13.07,-59.53,82.4,13.87
Cherskiy,79,RU,1571347964,96,68.75,161.3,18.94,8.97
Aykhal,90,RU,1571347966,93,65.95,111.51,32.0,2.24
Husavik,5,CA,1571347967,74,50.56,-96.99,52.0,11.99
Rincon,75,PA,1571347969,83,8.46,-82.28,78.8,13.87
Birjand,0,IR,1571347971,24,32.86,59.22,44.6,6.93
Hobyo,100,SO,1571347972,79,5.35,48.53,79.96,8.25
Fare,33,PF,1571347976,81,-16.7,-151.02,79.06,13.04
Thinadhoo,100,MV,1571347977,78,0.53,72.93,81.62,10.69
Ancud,90,CL,1571347979,87,-41.87,-73.83,51.8,3.36
Slave Lake,1,CA,1571347981,81,55.28,-114.77,48.2,5.82
Buala,98,SB,1571347982,80,-8.15,159.59,81.04,10.83
Soto,90,AR,1571347984,77,-32.81,-61.4,66.99,14.99
Azogues,75,EC,1571347986,46,-2.74,-78.85,71.6,8.05
Bethel,90,US,1571347987,74,60.79,-161.76,28.4,13.87
Yukon,0,US,1571347989,34,35.51,-97.76,79.0,19.46
Charters Towers,1,AU,1571347991,84,-20.07,146.27,70.24,9.17
Kosa,79,JP,1571347992,93,32.67,130.82,64.0,3.6
Ust-Maya,74,RU,1571347994,95,60.42,134.54,23.76,4.0
Hamilton,75,CA,1571347996,75,43.26,-79.87,48.99,14.99
Montepuez,100,MZ,1571347997,52,-13.13,39.0,77.89,9.04
Hualmay,54,PE,1571348001,85,-11.1,-77.61,62.91,14.52
Kyshtovka,92,RU,1571348002,74,56.56,76.62,27.58,11.01
Severo-Kurilsk,100,RU,1571348004,73,50.68,156.12,41.22,27.13
Kunszentmiklos,0,HU,1571348006,93,47.03,19.13,54.0,2.24
Sorland,75,NO,1571348007,74,67.67,12.69,37.4,4.7
Palana,100,RU,1571348009,69,59.08,159.95,33.25,10.8
Codrington,0,AU,1571348011,68,-28.95,153.24,72.0,3.36
Quatre Cocos,40,MU,1571348012,64,-20.21,57.76,71.6,12.75
Inhambane,0,MZ,1571348014,96,-23.87,35.38,62.81,5.59
Karaton,20,ID,1571348016,88,-6.34,106.1,77.0,3.36
Keti Bandar,0,PK,1571348017,75,24.14,67.45,83.04,15.46
Tabora,20,TZ,1571348019,50,-5.02,32.81,78.8,9.17
Yook,100,PH,1571348021,80,13.23,121.96,82.41,17.94
Waingapu,70,ID,1571348024,76,-9.65,120.26,68.46,4.65
Vila Velha,20,BR,1571348026,74,-3.71,-38.6,80.6,11.41
Mogadishu,42,SO,1571348029,78,2.04,45.34,79.3,8.72
Turukhansk,100,RU,1571348031,93,65.8,87.96,24.63,10.87
Lishu,0,CN,1571348032,53,43.31,124.32,45.15,3.6
Sangar,100,RU,1571348035,90,63.92,127.47,25.69,7.31
Varnamo,94,SE,1571348037,100,57.19,14.04,53.6,4.7
Munirabad,100,IN,1571348039,93,15.28,76.33,71.95,8.34
Palmer,40,AU,1571348040,71,-34.85,139.16,54.0,16.11
Leshan,3,CN,1571348042,87,29.56,103.76,56.6,1.79
Calamar,0,CO,1571348044,51,1.96,-72.65,85.83,1.19
Placido de Castro,68,BR,1571348046,48,-10.34,-67.19,90.19,4.32
Tambun,20,ID,1571348047,88,-6.26,107.07,80.01,3.36
Kupang,10,ID,1571348049,70,-10.16,123.6,76.92,10.51
Timbuktu,0,ML,1571348051,14,16.77,-3.01,94.09,10.71
Puerto Narino,75,CO,1571348052,88,-3.77,-70.38,82.4,1.1
Lillooet,75,CA,1571348054,71,50.69,-121.94,53.6,12.75
Lubao,96,CD,1571348056,91,-5.39,25.75,70.8,0.96
Galiakot,0,IN,1571348057,56,23.54,74.01,74.58,3.51
Sao Desiderio,69,BR,1571348059,31,-12.36,-44.97,85.2,5.86
Hokitika,100,NZ,1571348064,90,-42.72,170.96,55.25,11.05
West Lafayette,1,US,1571348065,43,40.43,-86.91,57.2,5.82
Guerrero Negro,21,MX,1571348067,86,27.97,-114.04,66.73,12.24
Oranjestad,20,AW,1571348069,70,12.52,-70.03,86.0,18.34
Santa Rosa,0,AR,1571348070,38,-36.62,-64.29,70.66,14.25
Tocopilla,60,CL,1571348072,85,-22.09,-70.2,60.04,20.96
Horana,20,LK,1571348074,88,6.72,80.06,77.0,4.7
Binga,0,ZW,1571348075,24,-17.62,27.34,67.09,2.89
Qingdao,20,CN,1571348077,81,36.09,120.35,53.6,4.47
Saldanha,96,PT,1571348079,93,41.42,-6.55,58.32,2.71
Kholodnyy,58,RU,1571348080,98,62.72,147.95,-3.56,3.65
Manerbio,75,IT,1571348082,87,45.36,10.14,62.6,4.7
Amarpur,0,IN,1571348084,93,23.52,91.65,74.06,2.37
Juegang,100,CN,1571348085,78,32.31,121.18,61.0,7.18
Terme,75,TR,1571348087,93,41.21,36.97,64.4,3.36
Aliwal North,40,ZA,1571348089,35,-30.69,26.71,67.86,10.83
Kamaishi,93,JP,1571348091,76,39.28,141.86,39.08,2.3
Vanimo,31,PG,1571348092,79,-2.67,141.3,80.18,8.72
Vicksburg,1,US,1571348094,55,32.35,-90.88,66.2,6.91
Mitu,84,IR,1571348096,32,36.2,46.09,49.74,0.72
Glace Bay,90,CA,1571348097,100,46.2,-59.96,57.0,35.57
Karratha,0,AU,1571348099,31,-20.74,116.85,69.94,7.76
Bathsheba,20,BB,1571348101,78,13.22,-59.52,82.4,13.87
Poum,100,MK,1571348102,74,41.28,20.71,52.53,0.85
Lukovetskiy,40,RU,1571348104,92,64.29,41.92,24.8,2.24
Chara,20,GR,1571348106,88,39.42,22.43,64.4,1.57
Zambezi,100,ZM,1571348115,26,-13.55,23.12,72.11,5.66
Ati,6,TD,1571348117,56,13.21,18.34,84.98,7.25
Sao Gabriel da Cachoeira,75,BR,1571348118,78,-0.13,-67.09,82.4,8.05
Korneuburg,0,AT,1571348120,93,48.34,16.33,55.0,8.05
Sitka,26,US,1571348122,16,37.17,-99.65,87.01,18.01
Rosetta,20,EG,1571348123,73,31.4,30.42,73.4,2.24
Nelson Bay,0,AU,1571348127,52,-32.72,152.14,64.0,13.87
Ukiah,1,US,1571348128,42,39.15,-123.21,71.01,12.75
Mayo,90,CA,1571348130,69,63.59,-135.9,35.6,2.24
Vrangel,0,RU,1571348132,61,42.73,133.08,37.37,4.21
Okato,100,NZ,1571348133,94,-39.19,173.88,59.0,8.99
Grindavik,0,IS,1571348135,64,63.84,-22.43,39.2,6.93
Itupiranga,0,BR,1571348137,49,-5.13,-49.33,91.4,5.82
Iquitos,20,PE,1571348138,55,-3.75,-73.25,89.6,6.93
Whitehorse,90,CA,1571348140,100,60.72,-135.06,34.0,3.2
Bambanglipuro,100,ID,1571348142,81,-7.95,110.28,76.27,6.87
Pechora,94,RU,1571348144,76,65.12,57.16,24.43,3.89
Gladstone,90,AU,1571348145,78,-23.84,151.26,75.2,8.05
Edgewater,1,US,1571348147,61,28.99,-80.9,84.2,5.82
Preobrazheniye,0,RU,1571348149,53,42.9,133.91,38.35,3.0
College,75,US,1571348150,57,64.86,-147.8,33.8,3.36
Manaure,20,CO,1571348154,66,11.78,-72.45,89.6,6.93
Chake Chake,14,TZ,1571348155,79,-5.25,39.77,80.21,14.36
Abu Kamal,14,SY,1571348157,37,34.45,40.92,78.32,11.52
Verkhoturye,100,RU,1571348159,96,58.86,60.81,30.1,4.41
Bandarbeyla,98,SO,1571348160,82,9.49,50.81,74.51,11.43
San Quintin,100,PH,1571348162,86,17.54,120.52,70.31,5.77
Altos,0,BR,1571348164,34,-5.04,-42.46,95.0,2.24
Nago,40,IT,1571348165,87,45.88,10.89,62.01,2.24
Sosnovka,0,RU,1571348167,83,53.23,41.37,52.53,14.07
Dahod,0,IN,1571348169,59,22.84,74.26,73.5,8.32
Burns Lake,89,CA,1571348172,82,54.23,-125.76,41.06,7.11
Nuuk,75,GL,1571348175,74,64.17,-51.74,35.6,3.36
Fishers,1,US,1571348177,54,39.96,-86.01,59.0,11.41
Berlevag,0,NO,1571348178,79,70.86,29.09,28.4,20.8
Inirida,69,CO,1571348180,68,3.87,-67.92,86.91,1.72
Sinnamary,12,GF,1571348182,79,5.38,-52.96,82.79,16.13
Xinzhi,40,TW,1571348183,73,22.54,120.62,75.2,3.36
Brae,55,GB,1571348185,93,60.4,-1.35,50.0,10.29
Rio Grande,90,BR,1571348190,93,-32.03,-52.1,66.2,16.11
Kasongo-Lunda,100,CD,1571348192,97,-6.48,16.82,67.94,1.9
Fortuna,75,US,1571348193,77,40.6,-124.16,62.01,11.41
Sungaipenuh,100,ID,1571348195,99,-2.08,101.38,72.1,1.1
Dikson,96,RU,1571348197,92,73.51,80.55,24.02,12.26
Gat,20,SN,1571348198,94,14.69,-16.54,80.6,6.93
Veraval,0,FR,1571348200,100,49.65,0.71,55.4,16.11
Torbat-e Jam,0,IR,1571348202,44,35.24,60.63,47.99,6.87
Kapit,99,MY,1571348203,99,2.02,112.94,72.15,1.72
Abu Zabad,100,SD,1571348205,67,12.35,29.25,78.31,6.51
Lorengau,100,PG,1571348207,82,-2.02,147.27,80.86,12.88
Kamenka,0,MD,1571348208,87,48.03,28.7,43.0,0.43
Te Anau,7,NZ,1571348210,86,-45.41,167.72,39.59,2.73
Ushtobe,0,KZ,1571348212,54,45.25,77.98,40.7,5.32
Paris,75,FR,1571348213,87,48.86,2.35,59.0,16.11
Yantal,71,RU,1571348215,89,56.85,105.25,34.37,3.62
Big Spring,1,US,1571348217,30,32.25,-101.48,82.0,9.17
Oksfjord,0,NO,1571348218,73,70.24,22.35,26.6,18.34
Sur,0,OM,1571348220,39,22.57,59.53,78.32,4.12
Tel Aviv-Yafo,20,IL,1571348222,78,32.08,34.78,75.99,2.24
Estevan,40,CA,1571348223,37,49.14,-102.99,66.2,11.41
Caravelas,45,BR,1571348225,76,-17.73,-39.27,75.14,9.19
Muros,40,ES,1571348227,100,42.77,-9.06,62.01,5.82
Tanout,0,NE,1571348228,22,14.97,8.88,92.24,5.23
Atambua,79,ID,1571348230,77,-9.11,124.89,77.21,10.13
Marawi,96,PH,1571348232,94,8.0,124.29,75.0,5.01
Khuzhir,0,RU,1571348233,72,53.19,107.35,31.9,5.55
Strezhevoy,90,RU,1571348235,68,60.73,77.6,24.8,6.71
Mosquera,40,CO,1571348237,52,4.71,-74.23,64.4,6.93
Punta Alta,90,AR,1571348239,88,-27.46,-55.82,77.0,16.11
Apac,44,UG,1571348240,97,1.98,32.53,64.7,4.18
Campo Maior,95,BR,1571348242,32,-4.83,-42.16,90.92,2.57
Amga,54,RU,1571348244,96,60.89,131.98,26.05,2.33
Flin Flon,90,CA,1571348245,86,54.77,-101.88,39.2,6.93
Sladkovo,0,RU,1571348247,75,55.53,70.34,27.02,5.66
Bilma,0,NE,1571348249,17,18.69,12.92,88.46,8.43
Boulder City,1,US,1571348250,10,35.98,-114.83,87.8,19.46
Malvern,0,GB,1571348252,100,52.12,-2.33,52.0,8.05
Hofn,100,IS,1571348254,84,64.25,-15.21,26.99,22.82
Sobolevo,23,RU,1571348255,88,54.43,31.9,49.72,10.22
Timaru,100,NZ,1571348257,97,-44.39,171.25,46.99,3.0
Rio Pardo,100,BR,1571348259,97,-29.98,-52.37,69.94,5.23
Severodvinsk,40,RU,1571348260,92,64.56,39.82,24.8,2.24
Udachnyy,90,RU,1571348262,95,66.42,112.4,32.0,2.24
Zonguldak,85,TR,1571348264,81,41.25,31.83,64.43,1.68
Levski,0,BG,1571348265,100,43.36,25.14,55.4,2.75
Suez,0,EG,1571348267,78,29.97,32.54,69.94,12.37
Cancun,75,MX,1571348269,70,21.17,-86.85,87.8,12.75
Osmaniye,0,TR,1571348272,76,37.07,36.26,75.99,4.0
Cheremukhovo,100,RU,1571348273,95,56.23,46.23,50.78,6.98
Ahvaz,0,IR,1571348275,46,31.32,48.68,73.4,8.48
Nizwa,0,OM,1571348277,32,22.93,57.53,74.97,1.57
Aksha,0,RU,1571348279,56,50.28,113.29,27.08,0.85
Puri,100,ID,1571348280,83,-7.54,112.45,69.79,4.7
Inuvik,75,CA,1571348283,79,68.36,-133.71,23.0,16.11
Severnyy-Kospashskiy,91,RU,1571348285,98,59.09,57.8,28.99,1.01
Tome,75,JP,1571348288,66,38.69,141.2,53.6,5.82
Yar-Sale,0,RU,1571348290,83,66.83,70.83,21.64,11.18
Acapulco,90,MX,1571348292,83,16.86,-99.88,80.6,8.05
Oppdal,51,NO,1571348295,80,62.6,9.69,36.83,6.98
Riyadh,0,SA,1571348297,24,24.63,46.72,78.8,5.82
Kargalinskaya,0,RU,1571348298,85,43.74,46.48,57.26,6.22
Phaltan,88,IN,1571348300,91,17.99,74.43,69.61,4.65
San Policarpo,100,PH,1571348302,85,12.18,125.51,77.19,3.31
Luderitz,78,NA,1571348303,78,-26.65,15.16,61.02,24.14
Oconomowoc,90,US,1571348305,66,43.11,-88.5,52.0,5.23
Comodoro Rivadavia,40,AR,1571348307,39,-45.87,-67.48,62.6,14.99
Sambava,42,MG,1571348308,95,-14.27,50.17,66.91,3.31
Olsztyn,0,PL,1571348310,87,53.78,20.48,50.0,2.24
Salalah,20,OM,1571348312,78,17.01,54.1,82.4,3.36
Victoria Point,40,AU,1571348313,83,-27.58,153.3,73.99,10.29
Scottsbluff,1,US,1571348315,15,41.87,-103.67,81.0,8.05
Abilene,1,US,1571348317,15,32.45,-99.73,79.0,8.05
Zhigansk,100,RU,1571348318,95,66.77,123.37,17.03,8.5
Duldurga,26,RU,1571348320,54,50.67,113.59,28.77,3.71
Arlit,30,NE,1571348325,17,18.74,7.39,94.58,2.51
Chabahar,0,IR,1571348327,78,25.29,60.65,78.8,7.36
Nikolsk,100,RU,1571348328,94,59.53,45.45,35.29,8.39
Namatanai,100,PG,1571348330,82,-3.66,152.44,79.44,16.98
Jacareacanga,75,BR,1571348332,79,-6.22,-57.76,84.2,3.36
Srednekolymsk,40,RU,1571348333,99,67.46,153.71,1.19,2.21
Viedma,92,AR,1571348335,81,-40.81,-62.99,55.97,7.74
Manisa,0,TR,1571348336,93,38.62,27.43,64.4,0.25
Churapcha,99,RU,1571348338,97,62.0,132.43,32.44,5.06
Homer,90,US,1571348340,86,59.64,-151.54,39.2,10.65
Nampula,75,MZ,1571348341,94,-15.12,39.26,71.6,6.93
Son La,93,VN,1571348343,95,21.32,103.9,63.38,1.79
Alzamay,100,RU,1571348345,91,55.55,98.67,41.4,9.44
Santa Maria,0,BR,1571348347,35,-16.02,-48.01,86.0,8.05
Gryazovets,100,RU,1571348348,95,58.88,40.25,36.55,11.68
Saint Anthony,75,US,1571348350,26,43.97,-111.68,61.0,12.75
George Town,75,MY,1571348351,100,5.42,100.33,78.8,1.12
Chulym,97,RU,1571348353,81,55.09,80.97,31.31,12.86
Bubaque,100,GW,1571348355,81,11.28,-15.83,82.84,9.19
Chino Valley,1,US,1571348356,22,34.76,-112.45,82.99,16.11
Natal,40,BR,1571348358,74,-5.81,-35.21,82.4,12.75
Maumere,69,ID,1571348360,68,-8.63,122.22,73.35,2.42
East Brainerd,1,US,1571348362,31,35.0,-85.15,66.2,4.7
Maniitsoq,100,GL,1571348363,56,65.42,-52.9,39.35,16.84
Dingle,89,PH,1571348365,88,11.0,122.67,74.35,7.23
Ta Khmau,40,KH,1571348367,83,11.48,104.95,80.6,5.82
Kuryk,0,KZ,1571348368,26,43.18,51.68,63.06,13.31
Praia da Vitoria,0,PT,1571348370,87,38.73,-27.07,60.8,7.11
Visnes,42,NO,1571348372,87,59.36,5.22,52.0,11.41
Harstad,100,NO,1571348376,64,68.8,16.53,37.99,11.41
Los Llanos de Aridane,100,ES,1571348378,56,28.66,-17.92,69.8,8.05
Hovd,0,NO,1571348380,65,63.83,10.7,46.99,6.93
Omaruru,92,NA,1571348381,21,-21.42,15.95,82.64,9.33
Kloulklubed,75,PW,1571348383,94,7.04,134.26,77.0,1.5
Meadow Lake,75,CA,1571348385,70,54.13,-108.44,44.6,5.82
Kishi,54,NG,1571348387,87,9.08,3.85,73.71,1.79
Bundaberg,8,AU,1571348388,78,-24.87,152.35,80.01,5.82
Senneterre,90,CA,1571348390,93,48.39,-77.24,39.2,13.87
Negombo,20,LK,1571348393,88,7.21,79.83,77.0,4.7
Cabedelo,75,BR,1571348395,88,-6.97,-34.84,77.0,11.41
Makat,0,KZ,1571348397,40,47.65,53.35,49.15,9.08
Volovo,42,RU,1571348401,84,53.55,38.01,53.19,9.86
Manacapuru,40,BR,1571348403,74,-3.3,-60.62,82.4,5.82
La Palma,31,CO,1571348405,65,5.36,-74.39,81.81,2.1
Bullhead City,20,US,1571348406,12,35.15,-114.57,95.0,20.8
Verkhnevilyuysk,100,RU,1571348408,96,63.45,120.31,34.62,3.53
Port Lincoln,89,AU,1571348410,77,-34.72,135.86,56.97,24.27
Boyolangu,97,ID,1571348411,87,-8.09,111.9,66.66,3.33
Bushehr,0,IR,1571348413,65,28.97,50.84,78.8,4.59
Stokmarknes,0,NO,1571348415,69,68.56,14.91,39.99,8.05
Lishui,97,CN,1571348416,84,28.45,119.91,56.18,2.42
Shimoda,99,JP,1571348418,93,34.7,138.93,62.01,5.99
Krasnokamensk,65,RU,1571348420,32,50.1,118.04,37.61,3.53
Calvinia,40,ZA,1571348421,50,-31.47,19.78,71.18,4.88
