City,Cloudiness (%),Country,Date,Humidity (%),Latitude,Longitude,Max Temp (F),Wind Speed (mph)
Bethel,40,US,1571699748,86,60.79,-161.76,39.2,10.29
Yellowknife,90,CA,1571699975,79,62.45,-114.38,28.4,11.41
Mitsamiouli,20,KM,1571700160,83,-11.38,43.28,75.2,5.82
Sao Joao da Barra,100,BR,1571700162,75,-21.64,-41.05,69.89,5.48
Lebu,40,ET,1571699767,71,8.96,38.73,55.4,2.24
Kodiak,90,US,1571699783,62,39.95,-94.76,54.0,17.22
Qaanaaq,0,GL,1571700167,38,77.48,-69.36,5.29,10.89
Marzuq,0,YE,1571700169,56,14.4,46.47,65.75,2.26
Hilo,75,US,1571699607,66,19.71,-155.08,84.2,6.93
Dalbandin,11,PK,1571700174,18,28.9,64.41,66.33,3.47
Alofi,75,NU,1571700176,83,-19.06,-169.92,80.6,3.36
Port Elizabeth,75,US,1571699605,77,39.31,-74.98,62.6,6.35
Albany,20,US,1571700180,76,42.65,-73.75,54.0,4.63
Ushuaia,40,AR,1571700182,40,-54.81,-68.31,51.8,16.11
Kapaa,75,US,1571700183,78,22.08,-159.32,84.2,9.17
Laguna,40,BZ,1571700185,74,16.17,-88.94,86.0,4.7
Coihaique,20,CL,1571699998,57,-45.58,-72.07,48.2,3.36
Saint-Philippe,1,CA,1571699683,76,45.36,-73.48,55.4,4.7
Mizan Teferi,82,ET,1571699805,96,6.99,35.58,60.75,3.44
Bluff,3,AU,1571700194,41,-23.58,149.07,75.56,15.19
Cape Town,0,ZA,1571699625,64,-33.93,18.42,55.99,7.0
Madang,50,CN,1571700197,72,35.32,102.79,41.59,2.44
Ahipara,7,NZ,1571699881,85,-35.17,173.16,70.0,18.66
Busselton,18,AU,1571700201,64,-33.64,115.35,64.99,3.0
Ribeira Grande,64,PT,1571699768,75,38.52,-28.7,62.6,8.21
Codrington,25,AU,1571700206,49,-28.95,153.24,71.6,5.82
Vaini,100,IN,1571700208,96,15.34,74.49,68.0,1.97
Mahebourg,40,MU,1571699729,88,-20.41,57.7,73.99,10.29
Atuona,6,PF,1571700212,76,-9.8,-139.03,79.39,14.47
Arraial do Cabo,75,BR,1571700214,64,-22.97,-42.02,71.6,2.24
Ponta do Sol,100,BR,1571699908,83,-20.63,-46.0,68.49,4.74
Mar del Plata,0,AR,1571700218,52,-46.43,-67.52,51.76,9.15
Ponta Delgada,20,PT,1571700220,77,37.73,-25.67,60.8,4.7
Cidreira,100,BR,1571700222,77,-30.17,-50.22,63.79,5.75
Provideniya,75,RU,1571699637,80,64.42,-173.23,35.6,11.18
Nishihara,75,JP,1571699776,100,35.74,139.53,61.0,17.22
Conceicao do Araguaia,15,BR,1571700228,54,-8.26,-49.26,82.6,1.57
Ciudad Bolivar,37,VE,1571700230,58,8.12,-63.55,80.64,5.61
Tanda,0,IN,1571700232,39,31.67,75.63,65.05,1.81
Nome,1,US,1571700234,73,30.04,-94.42,75.99,5.82
Punta Arenas,40,CL,1571700235,57,-53.16,-70.91,50.0,23.04
Pisco,20,PE,1571699816,30,-13.71,-76.2,71.6,8.05
Port Hedland,74,AU,1571699915,37,-20.31,118.58,84.2,11.41
Upernavik,40,GL,1571699878,54,72.79,-56.15,12.04,9.71
Kumluca,0,TR,1571700242,46,36.37,30.29,67.24,5.75
Hobart,75,AU,1571700245,54,-42.88,147.33,61.0,6.93
Isangel,65,VU,1571700248,86,-19.55,169.27,73.85,15.59
Ust-Nera,1,RU,1571700250,93,64.57,143.24,4.08,3.94
Batagay,0,RU,1571700252,85,67.65,134.64,7.79,2.3
Rikitea,100,PF,1571700254,81,-23.12,-134.97,70.92,24.56
Castletown,0,AU,1571700256,100,-33.83,121.9,57.2,8.05
Baykit,100,RU,1571700258,74,61.68,96.39,21.51,5.37
Saldanha,53,PT,1571700260,73,41.42,-6.55,46.78,5.88
Nouadhibou,27,MR,1571700262,68,20.93,-17.03,69.8,18.34
Mataura,94,NZ,1571700264,93,-46.19,168.86,44.01,5.01
Klaksvik,98,FO,1571699727,81,62.23,-6.59,46.4,21.92
Puerto Ayora,90,EC,1571700268,64,-0.74,-90.35,73.4,16.11
Zhuanghe,58,CN,1571700270,86,39.7,122.97,60.91,8.23
Avarua,0,CK,1571700272,78,-21.21,-159.78,78.8,13.87
Asyut,0,EG,1571700274,47,27.18,31.19,75.2,5.82
Mussomeli,54,IT,1571700276,73,37.58,13.75,69.01,3.0
Fuling,100,CN,1571700277,94,29.71,107.39,57.02,4.56
East London,73,ZA,1571700279,65,-33.02,27.91,58.42,14.2
Clyde River,90,CA,1571700281,88,70.47,-68.59,32.0,14.99
Berekua,40,DM,1571700283,100,15.23,-61.32,78.8,3.36
Bambous Virieux,40,MU,1571699872,88,-20.34,57.76,73.99,10.29
Berlevag,90,NO,1571700288,86,70.86,29.09,30.2,14.99
Lata,0,IN,1571699967,33,30.78,78.62,25.45,3.69
Jamestown,55,AU,1571700293,21,-33.21,138.6,76.17,9.57
Huilong,100,CN,1571700295,93,31.15,106.5,60.93,5.93
New Norfolk,75,AU,1571700299,54,-42.78,147.06,61.0,6.93
Fortuna,20,US,1571699809,77,40.6,-124.16,70.0,16.11
Khatanga,98,RU,1571700305,93,71.98,102.47,15.85,14.63
Hermanus,76,ZA,1571700306,61,-34.42,19.24,54.0,3.0
Kaitangata,79,NZ,1571699802,84,-46.28,169.85,45.57,15.03
Yamada,75,JP,1571700311,93,36.58,137.08,63.0,4.7
Antalaha,78,MG,1571700313,83,-14.9,50.28,75.63,8.1
Bredasdorp,97,ZA,1571700315,54,-34.53,20.04,53.6,6.93
Sibu,75,MY,1571700317,100,2.29,111.83,73.4,2.24
Musoma,20,TZ,1571700319,78,-1.5,33.81,73.4,3.2
Gritsovskiy,87,RU,1571700320,95,54.14,38.16,52.47,4.72
Tbilisskaya,0,RU,1571700324,60,45.36,40.19,59.0,9.44
Barrow,2,AR,1571700326,56,-38.31,-60.23,49.35,10.07
Carnarvon,15,ZA,1571700328,63,-30.97,22.13,45.91,18.79
Estelle,100,FR,1571700332,93,43.97,3.47,60.8,4.7
Dong Hoi,75,VN,1571700334,88,17.48,106.6,76.24,3.31
Morwell,0,AU,1571700335,80,-38.24,146.4,55.99,5.01
Waiuku,20,NZ,1571700337,63,-37.25,174.73,66.0,25.28
Viedma,96,AR,1571700339,74,-40.81,-62.99,51.67,23.38
Severo-Kurilsk,100,RU,1571699774,65,50.68,156.12,40.32,8.93
Ginir,1,ET,1571700342,72,7.14,40.71,55.31,5.48
Pevek,76,RU,1571700346,93,69.7,170.27,23.23,0.74
Ondjiva,33,AO,1571700351,17,-17.07,15.73,77.09,7.96
Kruisfontein,96,ZA,1571699937,74,-34.0,24.73,49.35,3.71
Beinamar,85,TD,1571700355,94,8.67,15.38,71.8,3.65
Mount Isa,0,AU,1571699855,23,-20.73,139.49,82.4,16.11
Bathsheba,20,BB,1571700359,69,13.22,-59.52,82.4,9.17
Alagir,0,RU,1571700360,81,43.04,44.22,43.88,2.06
Axim,18,GH,1571700362,90,4.87,-2.24,73.89,1.88
Lichinga,17,MZ,1571700364,71,-13.3,35.25,70.54,2.37
Port Alfred,97,ZA,1571700366,67,-33.59,26.89,57.99,1.01
Trabzon,75,TR,1571700368,93,41.01,39.72,62.6,3.36
Keti Bandar,80,PK,1571700370,58,24.14,67.45,82.15,11.34
Sinnamary,76,GF,1571700372,75,5.38,-52.96,81.36,12.5
Singaraja,89,ID,1571700374,62,-8.11,115.08,81.57,6.22
Belle Fourche,1,US,1571700376,65,44.67,-103.85,46.0,14.99
Katsuura,75,JP,1571700378,82,33.93,134.5,66.2,4.7
Griffith,0,AU,1571700380,27,-34.29,146.06,78.01,10.29
Tuy Hoa,38,VN,1571700382,85,13.08,109.3,78.28,9.93
Boguchany,100,RU,1571700384,68,58.38,97.46,20.84,6.2
Victoria,75,BN,1571700386,94,5.28,115.24,80.6,9.48
Bud,100,NO,1571700388,61,62.91,6.91,50.0,17.22
Celestun,83,MX,1571700390,82,20.87,-90.4,84.52,16.8
Puerto Maldonado,75,PE,1571700391,100,-12.59,-69.19,33.8,2.24
Torbay,90,CA,1571700393,81,47.66,-52.73,46.0,6.93
Churapcha,95,RU,1571700395,86,62.0,132.43,21.92,3.49
Tadine,99,NC,1571700397,72,-21.55,167.88,75.65,13.09
Airai,37,TL,1571700399,22,-8.93,125.41,82.36,9.22
Tuatapere,100,NZ,1571700401,93,-46.13,167.69,44.01,5.01
Yerbogachen,89,RU,1571699845,86,61.28,108.01,18.19,6.2
Pangnirtung,20,CA,1571700404,73,66.15,-65.72,26.6,2.39
Ust-Barguzin,63,RU,1571700409,74,53.41,109.03,27.21,1.48
Emerald,40,AU,1571700410,47,-23.53,148.16,77.0,12.75
Esperance,40,AU,1571699861,100,-33.86,121.89,55.4,5.82
Butaritari,14,KI,1571699865,78,3.07,172.79,83.75,13.4
Souillac,0,FR,1571700418,100,45.6,-0.6,50.0,3.36
Rawson,100,AR,1571699939,69,-43.3,-65.11,50.45,28.63
Westport,1,US,1571700421,76,41.14,-73.36,60.01,6.38
Ereymentau,100,KZ,1571700423,70,51.62,73.1,23.77,10.63
Itarema,85,BR,1571700425,86,-2.92,-39.92,74.61,8.57
Tautira,20,PF,1571699874,66,-17.73,-149.15,86.0,8.05
Quartucciu,20,IT,1571700429,88,39.25,9.18,73.4,12.75
Komsomolskiy,100,RU,1571700434,87,67.55,63.78,18.39,8.61
Kiunga,98,PG,1571700436,83,-6.12,141.3,77.86,1.45
Gamba,11,CN,1571700437,82,28.28,88.52,26.46,1.32
Saskylakh,93,RU,1571700439,92,71.97,114.09,9.23,9.53
Sapele,100,NG,1571700441,94,5.89,5.68,75.04,2.62
Brae,100,GB,1571700443,93,60.4,-1.35,50.0,38.03
Geraldton,90,CA,1571699922,87,49.72,-86.95,46.4,17.22
Norsup,0,VU,1571700446,78,-16.07,167.38,80.69,11.18
Sur,0,OM,1571700450,42,22.57,59.53,76.08,3.71
Mongo,100,CD,1571700452,94,-5.62,14.6,73.35,2.06
Touros,40,BR,1571700454,83,-5.2,-35.46,75.2,4.7
Magadan,100,RU,1571699896,59,59.56,150.8,32.45,12.48
Longyearbyen,75,NO,1571700458,78,78.22,15.63,14.0,6.93
Bismarck,20,US,1571700460,59,46.81,-100.78,43.0,21.92
Mindelo,58,PT,1571700462,93,41.31,-8.72,51.01,2.24
Cabo San Lucas,20,MX,1571700464,69,22.89,-109.91,84.2,11.41
Innisfail,96,AU,1571700466,80,-17.52,146.03,74.53,11.97
Port Hardy,90,CA,1571700467,93,50.7,-127.42,50.0,13.87
Charcas,60,MX,1571700469,65,23.13,-101.11,67.89,8.08
Bereznik,63,RU,1571700471,87,62.86,42.71,29.32,7.61
Georgetown,40,GY,1571700473,83,6.8,-58.16,82.4,6.93
Tuytepa,0,UZ,1571700475,52,41.03,69.36,46.4,4.7
San Patricio,61,PY,1571700477,87,-26.98,-56.83,59.77,4.59
Kuvandyk,16,RU,1571700479,52,51.48,57.35,30.88,5.26
Ban Bung,90,TH,1571700481,100,18.31,100.7,71.6,0.45
Dindigul,100,IN,1571700482,97,10.37,77.97,71.67,2.04
Juba,75,EE,1571699899,81,57.82,26.93,44.6,3.36
Namibe,96,AO,1571700486,83,-15.19,12.15,69.19,5.57
Hun,75,BE,1571700488,87,50.34,4.87,54.0,10.29
Vardo,1,US,1571700492,72,39.62,-77.74,60.8,3.36
Victor Harbor,0,AU,1571700494,29,-35.55,138.62,84.99,5.82
Castro,20,CL,1571700496,57,-42.48,-73.76,50.0,8.05
Caravelas,100,BR,1571700498,95,-17.73,-39.27,71.6,3.53
Dikson,100,RU,1571700500,93,73.51,80.55,28.08,19.84
Denizli,0,TR,1571700502,54,37.77,29.09,57.2,2.24
Hithadhoo,34,MV,1571700504,75,-0.6,73.08,80.8,10.45
Yarada,75,IN,1571700509,94,17.65,83.27,78.8,4.7
Harper,1,US,1571700511,17,30.3,-99.24,77.0,4.7
Segou,92,SN,1571700513,78,12.41,-12.29,78.01,5.91
Aklavik,75,CA,1571700515,85,68.22,-135.01,21.2,8.05
Portland,1,US,1571700517,81,43.66,-70.25,52.0,4.36
Tigil,53,RU,1571700519,87,57.8,158.67,30.49,3.74
Rocha,62,UY,1571700520,93,-34.48,-54.34,45.05,1.72
Ossora,51,RU,1571700522,59,59.24,163.07,31.35,5.64
Norman Wells,75,CA,1571700524,92,65.28,-126.83,26.6,6.93
Chingirlau,55,KZ,1571700526,49,51.09,54.08,39.99,10.22
Akhmim,0,EG,1571700528,33,26.56,31.74,75.2,6.93
Norrtalje,90,SE,1571700532,93,59.76,18.7,48.2,12.75
Gayny,94,RU,1571700535,85,60.3,54.33,38.71,14.23
Flinders,0,AU,1571700537,45,-34.58,150.85,73.0,5.82
Tuktoyaktuk,75,CA,1571700539,92,69.44,-133.03,17.6,9.17
Kargasok,97,RU,1571700541,90,59.06,80.87,25.93,10.42
Goulburn,0,AU,1571700543,48,-34.75,149.72,71.01,8.97
Margate,75,AU,1571700545,54,-43.03,147.26,62.01,6.93
Ucluelet,90,CA,1571700548,93,48.94,-125.55,54.0,2.24
Makaryev,54,RU,1571700550,85,57.88,43.81,40.5,6.89
Siilinjarvi,75,FI,1571700552,90,63.08,27.67,32.0,8.05
Kirakira,77,SB,1571700554,80,-10.46,161.92,80.56,9.66
Adrar,0,DZ,1571700556,19,27.87,-0.29,75.2,5.82
Sandnessjoen,100,NO,1571700557,81,66.02,12.63,42.8,25.28
Homer,40,US,1571700559,75,59.64,-151.54,46.4,5.82
Skibbereen,20,IE,1571700561,70,51.55,-9.27,44.6,3.36
Vyshhorod,90,UA,1571700563,100,50.58,30.49,52.0,4.47
Contamana,53,PE,1571700565,48,-7.35,-75.01,86.59,3.11
Port Blair,100,IN,1571700567,74,11.67,92.75,83.25,7.16
Tasiilaq,68,GL,1571700568,79,65.61,-37.64,26.6,1.12
Dawei,37,MM,1571700572,78,14.07,98.19,80.13,6.53
Lasa,0,CY,1571700574,72,34.92,32.53,68.0,8.05
Shintomi,75,JP,1571700578,93,32.08,131.47,66.2,3.36
San Cristobal,28,HN,1571700580,88,14.68,-86.92,69.13,4.83
Strezhevoy,90,RU,1571700581,92,60.73,77.6,24.8,2.24
Turukhansk,79,RU,1571700585,96,65.8,87.96,16.34,2.28
Yeovil,40,GB,1571700587,87,50.94,-2.63,50.0,4.7
Yantarnyy,100,RU,1571700589,100,54.87,19.94,64.0,2.24
Saint-Pierre,48,FR,1571700591,100,48.95,4.24,46.4,6.93
Okhotsk,100,RU,1571700593,85,59.36,143.24,27.27,13.4
Melfort,90,CA,1571700595,69,52.87,-104.61,39.2,6.93
Mazyr,89,BY,1571700596,85,52.05,29.27,53.96,1.57
Kotma,69,IN,1571700598,81,23.2,81.98,67.24,0.72
Yulara,10,AU,1571700600,11,-25.24,130.99,75.2,11.41
Kinsale,20,IE,1571700602,70,51.71,-8.52,44.6,3.36
Imeni Morozova,90,RU,1571700604,81,59.98,31.04,42.8,4.47
Tocache,79,PE,1571700605,82,-8.19,-76.51,68.36,2.64
Lesosibirsk,100,RU,1571700607,62,58.22,92.49,23.54,7.81
Sola,9,TZ,1571700609,75,-3.17,33.8,70.92,5.21
Zahirabad,100,IN,1571700611,93,17.68,77.61,70.2,3.83
Ponsacco,40,IT,1571700613,100,43.62,10.63,69.01,3.36
Kaeo,5,NZ,1571700615,83,-35.1,173.78,70.0,16.11
Lokosovo,46,RU,1571700617,97,61.13,74.84,23.65,4.25
Kamaishi,75,JP,1571700619,93,39.28,141.86,53.6,4.7
Jaisalmer,0,IN,1571700621,23,26.91,70.91,78.69,4.99
Alvorada,90,BR,1571700625,100,-30.0,-51.08,63.0,5.61
Verkhoyansk,7,RU,1571700627,84,67.55,133.39,5.54,1.88
Victoria,75,BN,1571700629,94,5.28,115.24,80.6,9.48
Kabalo,100,CD,1571700631,97,-6.05,26.92,70.11,6.62
Otradnoye,90,RU,1571700633,81,59.77,30.8,42.8,4.47
Dukat,0,AL,1571700635,63,40.25,19.57,66.99,1.99
Nikolskoye,90,RU,1571700638,81,59.7,30.79,42.8,4.47
Abu Samrah,7,SY,1571700640,59,35.3,37.18,64.81,1.83
Hasaki,75,JP,1571700642,93,35.73,140.83,59.0,24.16
Bluefield,75,US,1571700644,82,37.27,-81.22,63.0,12.75
Kimbe,75,PG,1571700646,56,-5.56,150.15,90.93,1.1
Jacareacanga,72,BR,1571700648,79,-6.22,-57.76,76.98,2.35
Togur,100,RU,1571700650,70,58.36,82.83,25.09,8.03
Saint-Paul,90,FR,1571700652,100,45.22,1.9,48.0,2.24
Gushikawa,90,JP,1571700653,94,26.35,127.87,73.4,9.17
Liberal,1,US,1571700655,18,37.04,-100.92,60.8,20.8
Antofagasta,75,CL,1571700657,72,-23.65,-70.4,59.0,10.29
Thompson,40,CA,1571700659,59,55.74,-97.86,35.6,3.36
Balakhninskiy,98,RU,1571700664,96,58.01,114.28,14.85,2.46
Cooma,0,AU,1571700667,48,-36.24,149.13,64.4,8.05
Queanbeyan,0,AU,1571700669,52,-35.35,149.23,71.01,4.7
Faro,7,PT,1571700671,82,37.02,-7.94,57.2,5.82
Port Macquarie,0,AU,1571700672,49,-31.43,152.91,86.0,4.7
Izumo,75,JP,1571700674,82,35.37,132.75,69.8,5.82
Sarkand,0,KZ,1571700676,79,45.41,79.91,14.07,1.88
Chokurdakh,100,RU,1571700678,92,70.62,147.9,7.07,8.25
Chaiya,0,IN,1571700680,32,29.28,74.48,70.05,2.48
Cherskiy,72,RU,1571700681,90,68.75,161.3,3.74,6.33
Kvarkeno,0,RU,1571700683,57,52.08,59.73,29.8,8.72
Alice Springs,16,AU,1571700685,11,-23.7,133.88,73.4,16.11
Sheboygan,90,US,1571700689,100,43.75,-87.71,60.8,20.8
Faanui,18,PF,1571700691,67,-16.48,-151.75,81.09,4.56
Chuy,100,UY,1571700695,90,-33.69,-53.46,53.6,4.09
Rio Grande,97,BR,1571700697,77,-32.03,-52.1,59.49,8.59
Tacuarembo,48,UY,1571700701,94,-31.73,-55.98,52.54,3.31
Araria,35,IN,1571700703,79,26.13,87.47,67.5,5.68
Atar,2,MR,1571700706,29,20.52,-13.05,79.83,7.92
Haverfordwest,5,GB,1571700708,98,51.8,-4.97,53.01,2.1
Rome,95,IT,1571700711,77,41.89,12.48,66.99,2.24
Herbertpur,0,IN,1571700715,48,30.44,77.74,62.49,3.13
Maniitsoq,0,GL,1571700717,49,65.42,-52.9,35.92,5.79
Guerrero Negro,0,MX,1571700718,22,27.97,-114.04,83.3,14.5
Tahoua,68,NE,1571700720,27,14.89,5.26,90.19,7.52
Finschhafen,10,PG,1571700722,78,-6.6,147.85,80.74,15.75
Quatre Cocos,40,MU,1571700724,88,-20.21,57.76,73.99,10.29
Jeremie,96,HT,1571700727,90,18.65,-74.12,72.88,2.55
Gat,21,SN,1571700729,88,14.69,-16.54,77.0,10.29
Bejar,0,AL,1571700730,61,40.49,19.83,59.18,4.21
San Carlos de Bariloche,18,AR,1571700732,48,-41.13,-71.31,44.6,16.11
Saint George,0,GR,1571700736,87,39.45,22.34,59.0,0.58
Marshall,75,US,1571700738,54,39.12,-93.2,57.2,17.22
Kavaratti,100,IN,1571700740,84,10.57,72.64,80.58,21.79
Sitka,37,US,1571700741,26,37.17,-99.65,57.99,18.99
Kuching,75,MY,1571700743,94,1.56,110.34,77.0,11.41
Naryan-Mar,71,RU,1571700745,91,67.67,53.09,10.89,8.77
Marion,20,US,1571700747,88,35.21,-90.2,66.2,10.29
Puerto Ayacucho,75,CO,1571700749,94,5.66,-67.63,78.8,3.36
Luena,23,AO,1571700751,58,-11.78,19.91,64.94,5.77
Calvinia,0,ZA,1571700753,59,-31.47,19.78,48.65,7.83
Kuytun,97,RU,1571700754,63,54.34,101.51,20.21,7.05
Srandakan,43,ID,1571700756,67,-7.94,110.25,79.68,11.95
Kahului,40,US,1571700758,46,20.89,-156.47,89.6,20.8
Zhigansk,87,RU,1571700760,88,66.77,123.37,11.52,6.67
Shimoda,75,JP,1571700762,88,34.7,138.93,66.99,27.51
Tura,100,RU,1571700764,89,64.27,100.22,13.15,3.29
Lavrentiya,100,RU,1571700765,83,65.58,-170.99,32.86,11.12
Henties Bay,0,NA,1571700767,89,-22.12,14.28,60.01,3.0
Belyy Yar,61,RU,1571700769,73,53.6,91.39,19.4,6.71
San Quintin,0,PH,1571700771,77,17.54,120.52,77.76,4.03
Narsaq,33,GL,1571700773,80,60.91,-46.05,35.6,4.7
Salmas,90,IR,1571700775,93,38.2,44.77,51.8,4.7
Moron,88,HT,1571700777,76,18.56,-74.26,81.23,3.04
Kapit,74,MY,1571700779,94,2.02,112.94,76.73,0.31
Dabakala,100,CI,1571700781,94,8.36,-4.43,72.09,3.11
Wamba,100,CD,1571700786,99,2.14,27.99,66.72,1.77
Caninde de Sao Francisco,0,BR,1571700787,73,-9.66,-37.79,76.17,11.63
Huarmey,81,PE,1571700789,81,-10.07,-78.15,59.88,3.11
Iqaluit,90,CA,1571700791,86,63.75,-68.52,30.2,12.75
Avera,1,US,1571700793,83,33.19,-82.53,77.0,3.36
Yar-Sale,56,RU,1571700795,87,66.83,70.83,21.67,13.56
Gravdal,100,NO,1571700797,66,59.79,5.78,48.2,19.46
Salalah,100,OM,1571700799,47,17.01,54.1,78.8,2.24
Grand Gaube,40,MU,1571700801,88,-20.01,57.66,73.99,10.29
Freeport,40,BS,1571700803,79,26.54,-78.7,84.2,3.36
Farafangana,3,MG,1571700805,84,-22.82,47.83,74.89,15.08
Tongliao,0,CN,1571700807,26,43.61,122.27,50.4,7.81
Mao,20,DO,1571700809,78,19.55,-71.08,82.99,9.17
Kavieng,77,PG,1571700812,69,-2.57,150.8,84.02,4.34
Khorixas,0,NA,1571700813,12,-20.37,14.96,73.69,7.34
Savannah Bight,42,HN,1571700815,75,16.45,-85.85,85.1,25.68
Nakhon Phanom,54,LA,1571700817,85,17.4,104.79,71.37,1.34
Loiza,40,PR,1571700819,83,18.43,-65.88,84.2,5.82
Buraydah,3,SA,1571700821,35,26.33,43.97,71.6,4.7
Kununurra,60,AU,1571700823,54,-15.77,128.74,84.2,5.82
Donskoye,0,RU,1571700825,93,45.45,41.98,44.6,6.71
Wittstock,100,DE,1571700828,95,53.37,13.69,55.0,1.01
Bandarbeyla,21,SO,1571700830,81,9.49,50.81,80.58,17.07
Atambua,59,ID,1571700832,39,-9.11,124.89,85.05,3.2
Fukue,75,JP,1571700834,88,35.03,136.69,66.99,14.99
Swan River,77,CA,1571700835,81,52.11,-101.27,36.63,6.08
Vestmannaeyjar,0,IS,1571700837,65,63.44,-20.27,37.94,29.66
Dera Ghazi Khan,0,PK,1571700839,25,30.03,70.64,75.33,4.99
Pitimbu,20,BR,1571700841,83,-7.47,-34.81,77.0,4.7
Nimaparha,100,IN,1571700843,94,20.07,86.02,77.0,4.7
Puerto Madryn,97,AR,1571700845,46,-42.77,-65.04,54.43,28.83
Teahupoo,20,PF,1571700847,66,-17.83,-149.27,86.0,8.05
Lorengau,67,PG,1571700849,72,-2.02,147.27,84.56,8.37
Rabo de Peixe,20,PT,1571700851,77,37.8,-25.58,60.8,4.7
Luleburgaz,40,TR,1571700853,93,41.4,27.36,57.0,8.05
Ahuimanu,75,US,1571700857,70,21.44,-157.84,89.6,12.75
Pontes e Lacerda,97,BR,1571700859,97,-15.23,-59.33,70.99,1.05
Kropotkin,1,RU,1571700861,69,45.43,40.58,53.8,11.32
Sovetskiy,67,RU,1571700862,86,56.76,48.47,43.72,12.64
Sri Aman,97,MY,1571700864,94,1.24,111.46,75.2,2.24
Mapiripan,98,CO,1571700866,91,2.89,-72.13,75.02,2.98
Blackwater,23,GB,1571700868,93,51.33,-0.78,51.01,3.36
Denpasar,20,ID,1571700870,100,-8.65,115.22,75.2,1.12
Hamilton,90,CA,1571700872,93,43.26,-79.87,60.01,16.11
Padang,96,ID,1571700873,90,-0.92,100.36,69.06,1.77
Nakamura,75,JP,1571700876,88,35.17,136.87,64.4,14.99
Naze,75,NG,1571700877,94,5.43,7.07,77.0,4.09
Troitsko-Pechorsk,90,RU,1571700879,90,62.71,56.19,39.02,7.76
Havre-Saint-Pierre,90,CA,1571700881,86,50.23,-63.6,39.2,4.7
Ruteng,13,ID,1571700883,37,-8.61,120.46,81.34,2.93
Ayorou,28,NE,1571700885,46,14.73,0.92,87.1,6.85
Acapulco,40,MX,1571700887,79,16.86,-99.88,84.2,4.7
Camacha,20,PT,1571700889,63,33.08,-16.33,66.2,12.75
Maragogi,10,BR,1571700891,77,-9.01,-35.22,77.74,17.67
Mahibadhoo,85,MV,1571700893,81,3.78,72.97,81.93,14.27
Hirara,20,JP,1571700897,78,24.8,125.28,77.0,5.82
Milkovo,0,BG,1571700899,76,41.53,24.68,64.0,3.36
Hirson,75,FR,1571700901,87,49.92,4.08,52.0,11.41
Pokaran,0,IN,1571700904,21,26.93,71.92,77.43,7.05
Oum Hadjer,89,TD,1571700906,45,13.3,19.7,87.67,6.71
Tubuala,40,PA,1571700908,88,9.52,-79.03,80.01,4.7
Tiksi,89,RU,1571700910,86,71.64,128.87,5.0,6.35
Hadishahr,40,AZ,1571700912,54,38.84,45.66,57.2,9.17
Luderitz,0,NA,1571700914,67,-26.65,15.16,59.0,19.46
Dunedin,61,NZ,1571700916,50,-45.87,170.5,53.01,11.01
Pahasu,0,IN,1571700917,37,28.17,78.06,70.45,4.97
Saint Anthony,90,US,1571700919,34,43.97,-111.68,51.8,5.82
Herrin,40,US,1571700921,77,37.8,-89.03,66.2,12.75
Beaverlodge,75,CA,1571700923,88,55.21,-119.43,41.0,4.85
Arlit,62,NE,1571700925,17,18.74,7.39,89.87,9.19
Miri,38,NG,1571700926,77,10.31,9.75,73.18,0.69
Fairbanks,75,US,1571700928,74,64.84,-147.72,35.01,1.95
Gavle,99,SE,1571700930,84,60.67,17.14,43.0,5.99
Cusuna,20,HN,1571700932,75,15.85,-85.23,83.59,14.63
Mount Gambier,7,AU,1571700934,82,-37.83,140.78,57.2,6.93
Muyinga,31,BI,1571700936,90,-2.85,30.34,62.69,1.39
Fort Nelson,75,CA,1571700937,91,58.81,-122.69,37.4,10.29
Salta,20,AR,1571700940,28,-24.79,-65.41,73.4,8.05
Glendive,75,US,1571700942,45,47.11,-104.71,50.0,10.29
Ulaangom,14,MN,1571700944,59,49.98,92.07,14.95,3.78
Bogande,45,BF,1571700946,59,12.97,-0.14,82.44,6.62
Enshi,100,CN,1571700948,98,30.29,109.48,51.22,3.87
San Onofre,97,CO,1571700949,84,9.74,-75.52,77.76,5.57
Azul,3,AR,1571700952,67,-36.78,-59.86,47.52,8.46
Trogir,20,HR,1571700954,93,43.52,16.25,66.0,4.7
Samarai,59,PG,1571700959,91,-10.62,150.67,76.82,8.46
Nador,90,MA,1571700982,87,35.17,-2.93,59.0,3.36
Ostrovnoy,72,RU,1571700983,93,68.05,39.51,19.38,8.75
Oyama,75,JP,1571700986,87,36.31,139.8,62.01,21.92
Vetovo,0,HR,1571700988,87,45.42,17.79,55.99,6.93
Selikhino,11,RU,1571700990,63,50.37,137.51,41.94,16.46
Lagoa,68,PT,1571700992,76,37.14,-8.45,57.2,6.93
Natal,40,BR,1571700994,83,-5.81,-35.21,78.8,4.7
Bereda,20,ES,1571700996,100,43.27,-7.54,46.99,2.24
Praia da Vitoria,40,PT,1571700997,82,38.73,-27.07,62.6,5.79
Alta Floresta,40,BR,1571701000,63,-9.87,-56.08,79.38,5.93
Pesqueira,33,BR,1571701003,83,-8.36,-36.7,70.2,11.43
Itoman,75,JP,1571701006,94,26.12,127.67,73.4,11.41
Baghdad,40,IQ,1571701007,56,33.3,44.38,71.6,18.34
Barcelos,100,BR,1571701011,90,-0.97,-62.93,75.15,0.47
Masindi,73,UG,1571701013,95,1.69,31.72,63.34,5.37
Pottsville,1,US,1571701015,66,40.69,-76.2,60.8,3.36
Lusambo,83,CD,1571701017,96,-4.97,23.44,69.58,1.83
Waipawa,17,NZ,1571701019,55,-39.94,176.59,60.01,8.01
Gorlitz,75,CA,1571701020,52,51.46,-102.45,44.6,3.36
Amot,100,NO,1571701023,89,59.57,7.99,31.84,3.6
Mandera,29,ET,1571701024,67,3.94,41.86,82.36,5.79
Yumen,15,CN,1571701026,40,40.29,97.04,39.79,8.95
Bilibino,2,RU,1571701028,91,68.06,166.44,0.5,0.96
Alekseyevsk,100,RU,1571701030,85,57.84,108.35,21.74,3.13
Sorland,100,NO,1571701032,88,67.67,12.69,46.8,37.36
El Tigre,93,VE,1571701034,61,8.89,-64.25,79.65,5.66
Paranga,35,KE,1571701036,89,-3.29,38.4,69.26,4.14
Wewak,54,PG,1571701038,66,-3.55,143.63,84.34,5.06
Soligalich,70,RU,1571701041,86,59.08,42.29,36.68,8.32
Pasni,0,PK,1571701045,57,25.26,63.48,75.52,2.48
Auki,77,NG,1571701049,66,12.18,6.51,78.78,6.76
Leningradskiy,100,RU,1571701051,82,69.38,178.42,27.36,24.18
Yaan,100,NG,1571701052,91,7.38,8.57,74.95,2.68
Plettenberg Bay,87,ZA,1571701054,70,-34.05,23.37,52.7,3.62
Faya,0,SA,1571701056,30,18.39,42.45,62.6,3.36
Labuhan,88,ID,1571701058,62,-2.54,115.51,80.85,0.29
Beroroha,7,MG,1571701060,67,-21.68,45.17,70.93,2.08
Matara,53,BI,1571701062,87,-3.48,29.48,58.68,1.79
Makarov,0,RU,1571701064,65,48.62,142.78,46.94,8.61
Bulgan,100,MN,1571701066,94,48.81,103.53,17.83,12.03
Banda Aceh,100,ID,1571701068,93,5.56,95.32,74.43,2.42
Tapes,96,BR,1571701070,96,-30.67,-51.4,57.18,5.21
Jackson,75,US,1571701071,69,43.48,-110.76,41.0,4.7
Olutanga,78,PH,1571701073,73,7.31,122.85,82.89,3.96
Upington,12,ZA,1571701075,29,-28.46,21.24,60.8,5.82
Saint-Augustin,40,CA,1571701077,70,45.63,-73.98,54.0,6.62
Quila,99,MX,1571701081,88,20.35,-104.08,69.01,5.01
Waidhofen,92,DE,1571701083,100,48.58,11.34,55.0,5.82
Wakkanai,0,JP,1571701085,56,45.41,141.67,55.26,5.14
Lae,75,PG,1571701087,69,-6.72,146.98,78.8,2.24
Moussoro,15,TD,1571701089,47,13.64,16.49,86.7,11.95
Lisakovsk,0,KZ,1571701091,51,52.55,62.49,30.43,11.79
Buchanan,20,LR,1571701093,94,5.88,-10.05,77.0,3.31
Severo-Yeniseyskiy,100,RU,1571701094,81,60.37,93.04,18.79,8.52
Sambava,84,MG,1571701096,87,-14.27,50.17,68.47,1.92
Skreia,75,NO,1571701098,93,60.65,10.93,39.2,9.17
Paso de los Toros,8,UY,1571701100,94,-32.81,-56.52,52.12,6.44
Tynda,100,RU,1571701102,91,55.15,124.74,28.2,3.15
San Lazaro,20,BZ,1571701104,74,18.04,-88.66,87.8,13.87
Blagoyevo,100,RU,1571701106,84,63.37,47.92,28.13,14.52
Sabha,16,LY,1571701108,44,27.03,14.43,72.46,12.24
Novyy Urengoy,23,RU,1571701110,93,66.08,76.63,16.92,7.74
Sayyan,14,YE,1571701112,36,15.17,44.32,55.76,4.83
Petropavlovsk-Kamchatskiy,100,RU,1571701113,59,53.05,158.65,37.4,6.71
Cockburn Town,40,TC,1571701116,70,21.46,-71.14,84.2,5.82
Owensboro,90,US,1571701117,100,37.77,-87.11,66.2,13.87
Balsas,95,BR,1571701120,89,-7.53,-46.04,73.92,2.53
Mehamn,94,NO,1571701121,74,71.03,27.85,28.49,11.59
Buin,100,CL,1571701123,25,-33.73,-70.74,73.4,12.75
Dingle,5,PH,1571701125,83,11.0,122.67,81.03,5.19
Klamath Falls,1,US,1571701127,39,42.22,-121.78,62.6,4.7
Milledgeville,40,US,1571701129,83,33.08,-83.23,75.99,4.29
Santa Cruz de Tenerife,75,ES,1571701134,82,28.47,-16.25,71.01,13.87
Mahajanga,10,MG,1571701136,83,-15.72,46.32,77.0,3.36
Grindavik,40,IS,1571701138,74,63.84,-22.43,33.8,19.46
Quesnel,90,CA,1571701140,81,52.98,-122.49,44.6,9.17
Southbridge,1,US,1571701145,76,42.08,-72.03,57.2,3.36
Guanhaes,97,BR,1571701147,98,-18.77,-42.93,66.25,3.49
Talara,0,PE,1571701152,89,-4.58,-81.27,64.44,16.37
Zaqatala,75,AZ,1571701154,77,41.63,46.65,59.0,4.7
Bagrami,1,AF,1571701155,70,34.49,69.27,46.4,4.7
Karratha,5,AU,1571701157,54,-20.74,116.85,82.26,14.67
Doha,1,QA,1571701159,74,25.29,51.53,82.4,4.74
Punta Alta,75,AR,1571701161,77,-27.46,-55.82,64.4,8.05
Cesvaine,96,LV,1571701163,97,56.97,26.31,44.53,2.21
Tabuk,7,PH,1571701165,82,17.41,121.44,76.17,1.45
Bongued,10,PH,1571701166,82,7.12,124.4,81.66,2.53
Meulaboh,100,ID,1571701168,82,4.14,96.13,79.65,6.53
Deputatskiy,69,RU,1571701173,84,69.3,139.9,6.06,1.92
Tabou,73,CI,1571701175,95,4.42,-7.36,74.71,2.62
Manggar,100,ID,1571701177,77,-2.88,108.27,82.02,15.97
Weligama,100,LK,1571701178,95,5.97,80.42,73.22,5.35
Anqing,91,CN,1571701180,52,30.51,117.04,65.21,7.83
Dolores,4,UY,1571701184,92,-33.53,-58.22,53.19,3.2
Ancud,20,CL,1571701186,57,-41.87,-73.83,50.0,8.05
Haines Junction,100,CA,1571701187,89,60.75,-137.51,23.05,1.25
Barra Patuca,50,HN,1571701189,73,15.8,-84.28,84.78,17.45
Shingu,40,JP,1571701191,77,33.72,135.99,68.0,12.75
Qaqortoq,93,GL,1571701193,80,60.72,-46.03,35.6,4.7
Kazachinskoye,100,RU,1571701195,64,57.69,93.28,22.82,6.87
North Platte,1,US,1571701197,29,41.12,-100.77,50.0,31.09
Christchurch,20,NZ,1571701199,50,-43.53,172.64,63.0,9.17
Careiro da Varzea,40,BR,1571701200,88,-3.2,-59.81,78.8,4.7
Przeworsk,33,PL,1571701202,100,50.06,22.49,54.0,2.24
Dwarka,20,IN,1571701204,72,28.58,77.04,66.2,4.88
Binga,18,ZW,1571701206,38,-17.62,27.34,81.3,5.88
Aden,23,YE,1571701208,57,12.79,45.03,80.85,3.96
Jerantut,54,MY,1571701210,96,3.94,102.37,74.05,1.14
Kalaleh,29,IR,1571701212,100,37.38,55.49,60.8,0.98
Tessalit,76,ML,1571701216,33,20.2,1.01,84.65,4.32
Walvis Bay,0,NA,1571701218,87,-22.95,14.51,60.01,12.75
Bayeux,20,BR,1571701220,83,-7.13,-34.94,77.0,4.7
Borogontsy,56,RU,1571701227,92,62.67,131.17,20.95,3.58
Hami,87,CN,1571701229,40,42.84,93.51,45.86,15.05
Cayenne,100,GF,1571701234,88,4.94,-52.33,77.0,2.24
Ketchikan,90,US,1571701236,93,55.34,-131.65,46.4,18.34
Las Palmas,97,CO,1571701238,84,9.27,-75.33,77.76,5.57
Constantine,20,DZ,1571701240,56,36.36,6.61,69.8,11.41
Dauphin,1,CA,1571701242,89,51.15,-100.04,39.2,6.93
Bridlington,2,GB,1571701244,93,54.08,-0.19,43.0,4.7
San Martin,1,US,1571701246,26,37.08,-121.61,84.2,11.41
Marsh Harbour,100,BS,1571701250,83,26.54,-77.06,80.94,2.24
Mandalgovi,47,MN,1571701252,38,45.76,106.27,37.53,4.9
Puerto Baquerizo Moreno,75,EC,1571701253,78,-0.9,-89.6,71.6,12.75
Chinhoyi,41,ZW,1571701255,31,-17.36,30.19,72.23,8.12
Tiznit,64,MA,1571701257,85,29.7,-9.73,52.0,11.27
Svetlaya,0,RU,1571701259,46,46.54,138.33,48.38,3.47
Kutum,69,SD,1571701262,48,14.2,24.66,77.52,2.44
Trairi,87,BR,1571701264,89,-3.28,-39.27,72.05,4.54
Romny,1,UA,1571701266,75,50.74,33.49,50.65,5.1
Biggar,53,CA,1571701268,59,52.06,-107.98,38.98,1.97
Sorong,40,ID,1571701269,73,-0.86,131.25,82.53,3.31
Benghazi,0,LY,1571701271,74,32.12,20.07,72.88,15.35
Goderich,100,CA,1571701273,82,43.74,-81.71,59.0,23.0
Altay,0,CN,1571701276,59,47.83,88.13,10.69,4.52
Pyaozerskiy,100,RU,1571701278,87,65.83,31.17,30.34,11.36
Sangar,3,RU,1571701280,89,63.92,127.47,16.75,4.27
Rurrenabaque,74,BO,1571701282,82,-14.44,-67.53,76.23,1.45
Livingstone,0,ZW,1571701284,20,-17.85,25.86,75.87,4.83
Artyom,0,RU,1571701286,93,43.36,132.19,35.6,2.24
Dharmadam,75,IN,1571701288,100,11.78,75.43,73.4,4.7
Paragominas,56,BR,1571701290,89,-3.0,-47.35,75.6,2.04
Pyshchug,27,RU,1571701292,82,58.89,45.71,36.77,8.77
Markova,90,RU,1571701294,92,52.21,104.21,24.8,17.9
Dalianwan,52,CN,1571701295,100,39.03,121.69,66.0,2.24
Shakiso,59,ET,1571701298,97,5.77,38.9,56.32,2.04
San Joaquin,14,PH,1571701299,73,10.59,122.14,82.96,5.73
Duluth,90,US,1571701302,93,46.77,-92.13,48.2,29.97
Port-Gentil,40,GA,1571701303,94,-0.72,8.78,77.0,2.24
Bulawayo,36,ZW,1571701305,26,-20.16,28.59,69.64,4.65
Poum,0,MK,1571701309,62,41.28,20.71,52.47,2.98
Trinidad,75,BO,1571701310,83,-14.83,-64.9,78.8,6.93
Harbour Breton,33,CA,1571701312,2,47.48,-55.8,46.0,6.64
Springbok,0,ZA,1571701316,53,-29.67,17.88,50.52,6.44
Egvekinot,100,RU,1571701318,88,66.32,-179.17,18.01,10.11
Muzhi,100,RU,1571701320,96,65.4,64.7,27.55,12.28
Shishou,100,CN,1571701322,64,29.72,112.42,67.5,11.61
Sioux Lookout,90,CA,1571701324,81,50.1,-91.92,46.4,8.05
Deutschlandsberg,6,AT,1571701326,93,46.81,15.21,59.0,1.12
Broome,100,GB,1571701327,93,52.47,1.45,52.0,4.7
Mach,12,PK,1571701329,28,29.87,67.33,64.44,2.84
Erzin,75,TR,1571701331,88,36.95,36.2,66.2,3.36
Byron Bay,90,AU,1571701333,72,-28.65,153.62,72.0,12.75
Cururupu,87,BR,1571701335,90,-1.82,-44.87,74.77,3.4
Vostok,0,RU,1571701336,43,46.45,135.83,44.91,1.95
Khandyga,84,RU,1571701338,83,62.65,135.58,17.71,2.86
Paris,15,FR,1571701340,93,48.86,2.35,50.0,1.12
Mango,100,CF,1571701342,99,4.65,22.36,67.42,1.19
Muscat,0,OM,1571701343,69,23.6,58.55,82.4,8.05
Hailey,40,US,1571701346,43,43.52,-114.32,50.0,13.87
Chancay,20,PE,1571701347,82,-11.56,-77.27,62.6,6.93
Nogliki,4,RU,1571701349,50,51.8,143.14,45.43,14.14
Hofn,0,IS,1571701351,59,64.25,-15.21,38.48,22.62
Usinsk,100,RU,1571701353,97,66.0,57.56,26.62,7.34
Orange Cove,1,US,1571701354,38,36.62,-119.31,82.0,6.96
Bonfim,90,GY,1571701356,57,3.36,-59.84,85.08,5.93
Zamora,21,ES,1571701359,100,41.51,-5.74,39.0,7.74
Jalu,0,LY,1571701361,72,29.03,21.55,69.04,7.63
Lixourion,0,GR,1571701363,61,38.2,20.43,73.71,3.38
Saint-Joseph,100,FR,1571701365,93,43.56,6.97,66.2,3.36
Bestobe,91,KZ,1571701367,82,52.5,73.1,21.74,11.41
Shache,76,CN,1571701368,89,38.42,77.24,57.99,8.63
Turochak,0,RU,1571701370,93,52.26,87.12,8.19,2.75
Ixtapa,90,MX,1571701372,83,20.71,-105.21,80.01,3.42
Saint Simons,90,US,1571701374,88,31.14,-81.39,78.01,10.29
Namatanai,95,PG,1571701376,65,-3.66,152.44,84.42,4.16
Te Anau,96,NZ,1571701378,95,-45.41,167.72,37.45,1.86
Margherita,51,IN,1571701379,98,27.29,95.67,66.27,2.51
Kijang,75,KR,1571701381,72,35.24,129.21,60.8,8.05
Qingdao,85,CN,1571701383,93,36.09,120.35,69.01,4.47
Caledon,75,CA,1571701385,76,43.88,-79.86,57.99,20.8
Belmonte,85,PT,1571701387,97,40.36,-7.35,46.0,5.99
Lavumisa,100,ZA,1571701388,67,-27.31,31.88,63.95,12.59
Izvestkovyy,0,RU,1571701390,44,48.98,131.55,39.78,5.39
Matadi,100,CD,1571701392,90,-5.83,13.46,75.24,4.68
Pankrushikha,48,RU,1571701394,70,53.83,80.35,23.4,11.48
Sao Filipe,0,CV,1571701396,77,14.9,-24.5,76.75,18.48
Bontang,76,ID,1571701398,80,0.12,117.47,80.44,4.34
Tarata,75,PE,1571701400,72,-17.47,-70.03,59.0,10.29
Sucua,75,EC,1571701402,69,-2.46,-78.17,75.2,4.7
Shahrud,1,IR,1571701407,83,36.42,54.97,44.08,3.29
Pouebo,99,NC,1571701409,49,-20.4,164.57,81.68,6.17
Kenora,100,CA,1571701410,70,49.76,-94.48,48.2,19.46
Havoysund,40,NO,1571701412,86,71.0,24.66,28.4,8.05
Ures,0,MX,1571701416,25,30.73,-112.95,87.01,5.99
Vaitape,18,PF,1571701417,67,-16.52,-151.75,81.09,4.56
Umrala,88,IN,1571701419,70,21.84,71.8,79.39,6.44
Angoram,36,PG,1571701423,58,-4.06,144.07,88.11,3.42
Mareeba,75,AU,1571701425,65,-16.99,145.42,80.6,14.99
Gumdag,0,TM,1571701427,59,39.2,54.59,59.45,4.38
Amapa,75,HN,1571701428,78,15.09,-87.97,80.6,4.7
Quzhou,49,CN,1571701430,71,28.97,118.86,59.88,6.6
Bambanglipuro,43,ID,1571701432,67,-7.95,110.28,79.68,11.95
Marystown,19,CA,1571701434,2,47.17,-55.16,46.0,10.85
Lompoc,1,US,1571701436,46,34.64,-120.46,89.6,16.11
Rio Gallegos,0,AR,1571701438,51,-51.62,-69.22,59.0,10.29
Taoudenni,22,ML,1571701439,19,22.68,-3.98,90.05,9.82
Paamiut,0,GL,1571701441,70,61.99,-49.67,37.56,3.42
Maiduguri,21,NG,1571701443,59,11.84,13.15,80.58,6.96
Tyret Pervaya,83,RU,1571701445,57,53.67,102.31,21.42,7.7
Aleksandrov Gay,19,RU,1571701446,67,50.14,48.57,48.0,9.06
Oistins,20,BB,1571701448,69,13.07,-59.53,82.4,9.17
Townsville,40,AU,1571701450,48,-19.26,146.82,82.4,19.46
Davila,20,PH,1571701452,88,18.47,120.58,77.0,6.93
Julfa,40,AZ,1571701453,54,38.95,45.63,57.2,9.17
Aripuana,99,BR,1571701455,95,-9.17,-60.63,73.63,3.94
Ambilobe,64,MG,1571701458,82,-13.19,49.05,73.17,4.47
Katherine,0,AU,1571701461,17,-14.47,132.26,82.4,6.93
Kurilsk,50,RU,1571701463,89,45.23,147.88,51.12,12.12
Challapata,0,BO,1571701465,41,-18.9,-66.78,52.56,2.26
Makakilo City,90,US,1571701466,70,21.35,-158.09,89.6,11.41
Pimampiro,75,EC,1571701468,87,0.39,-77.94,53.6,4.61
Kotka,90,FI,1571701470,82,60.47,26.95,35.6,5.82
Jaumave,40,MX,1571701472,40,23.41,-99.38,89.6,11.41
Mogadishu,34,SO,1571701474,83,2.04,45.34,80.94,11.05
Constitucion,75,MX,1571701476,26,23.99,-104.67,82.4,9.91
Kerema,99,PG,1571701478,82,-7.96,145.78,79.12,3.51
Villa Guerrero,100,MX,1571701480,86,21.98,-103.59,64.38,2.13
Evensk,0,RU,1571701482,59,61.92,159.24,18.57,8.88
Buala,1,SB,1571701484,68,-8.15,159.59,84.51,6.87
Wittenberge,56,DE,1571701486,93,53.0,11.75,57.0,3.0
Roros,90,NO,1571701488,96,62.57,11.38,33.8,4.7
Vila Velha,20,BR,1571701489,74,-3.71,-38.6,80.6,8.05
Hambantota,100,LK,1571701491,83,6.12,81.12,78.75,17.67
Beberibe,20,BR,1571701494,74,-4.18,-38.13,80.6,8.05
Newton,1,US,1571701497,82,42.34,-71.21,55.4,8.05
Urucara,78,BR,1571701499,79,-2.54,-57.76,78.67,2.06
Mako,81,BF,1571701501,62,13.11,-2.29,82.44,8.61
Wilmington,1,US,1571701506,67,39.75,-75.55,62.01,5.37
Kuzhener,69,RU,1571701508,85,56.81,48.92,43.99,13.4
Barabinsk,100,RU,1571701510,67,55.35,78.35,28.56,12.84
Klyuchi,22,RU,1571701512,77,52.25,79.17,22.66,5.88
Dhenkanal,84,IN,1571701514,94,20.65,85.6,77.0,4.7
Zhuravky,0,UA,1571701516,73,45.13,35.22,52.45,4.27
Aksarka,77,RU,1571701518,91,66.56,67.8,21.79,15.97
Varnamo,100,SE,1571701519,100,57.19,14.04,50.0,3.36
Athens,0,GR,1571701521,60,37.98,23.73,72.0,5.82
Tual,17,ID,1571701523,74,-5.67,132.75,80.26,7.67
Talnakh,75,RU,1571701525,79,69.49,88.39,21.2,13.42
Nizwa,0,OM,1571701526,34,22.93,57.53,71.94,1.97
Preeceville,94,CA,1571701530,70,51.95,-102.67,37.94,4.5
El Chimbo,40,HN,1571701532,69,14.13,-87.12,77.0,9.17
Anori,54,BR,1571701533,85,-3.74,-61.66,76.75,2.3
Puntarenas,75,CR,1571701535,94,9.98,-84.84,73.0,5.82
Miyako,75,JP,1571701537,77,33.63,130.94,77.0,1.12
Narasannapeta,99,IN,1571701539,92,18.42,84.04,73.78,4.74
Lithakia,0,GR,1571701541,100,37.72,20.83,57.2,13.65
Piranshahr,93,IR,1571701542,75,36.7,45.14,46.02,7.67
Sillamae,100,EE,1571701544,79,59.4,27.75,46.47,12.55
Zhongshu,79,CN,1571701547,96,24.52,103.77,59.11,4.32
Valky,90,UA,1571701548,100,49.83,35.6,48.2,6.71
Austin,1,US,1571701550,23,30.27,-97.74,80.6,3.36
Vanavara,18,RU,1571701552,95,60.35,102.28,16.68,5.41
Dubbo,1,AU,1571701554,27,-32.25,148.6,75.2,9.17
Esik,90,KZ,1571701556,63,43.36,77.47,30.2,4.47
Kailua,90,US,1571701558,70,21.39,-157.74,89.6,11.41
Richards Bay,100,ZA,1571701560,76,-28.77,32.06,66.85,27.78
Nsanje,61,MZ,1571701562,56,-16.92,35.26,80.1,3.22
Mastic Beach,1,US,1571701564,81,40.77,-72.85,59.0,5.88
Mossendjo,74,CG,1571701566,98,-2.95,12.72,71.55,1.63
Sal Rei,75,CV,1571701568,69,16.18,-22.92,78.8,17.22
Tchamba,2,TG,1571701570,91,9.03,1.42,73.27,2.35
Cap Malheureux,40,MU,1571701573,88,-19.98,57.61,73.99,10.29
Zaozerne,63,UA,1571701575,84,51.37,23.94,54.55,2.19
Loa Janan,70,ID,1571701578,83,-0.58,117.09,81.03,1.16
Devonport,41,AU,1571701580,73,-41.18,146.36,64.99,1.99
Zinder,94,NE,1571701582,38,13.81,8.99,87.55,7.99
Jasper,75,US,1571701584,100,33.83,-87.28,69.8,7.63
Sekoma,0,BW,1571701586,16,-24.51,23.93,71.06,14.38
Santa Rosa,0,AR,1571701588,25,-36.62,-64.29,54.91,9.1
Mujiayingzi,0,CN,1571701590,31,42.12,118.78,48.0,3.56
Manchester,1,US,1571701592,76,43.0,-71.45,53.01,5.82
Stromness,90,CA,1571701593,93,42.87,-79.55,64.0,16.11
Bonanza,74,NI,1571701595,98,14.03,-84.62,73.65,0.27
Zilina,16,SK,1571701597,93,49.22,18.74,57.99,3.36
Chilon,97,BO,1571701600,87,-18.0,-64.64,59.25,4.79
Bonthe,100,SL,1571701601,89,7.53,-12.5,78.31,4.65
Prince Albert,75,CA,1571701603,52,53.2,-105.75,42.8,5.82
Verkh-Chebula,89,RU,1571701605,76,56.03,87.61,21.87,14.74
Norfolk,90,US,1571701607,93,36.85,-76.29,61.0,4.45
Vila Franca do Campo,20,PT,1571701609,77,37.72,-25.43,60.8,4.7
Merauke,62,ID,1571701613,50,-8.49,140.4,87.1,8.41
Impfondo,99,CD,1571701614,94,1.62,18.06,71.42,0.85
Chapais,20,CA,1571701617,81,49.78,-74.86,42.8,3.65
Xingcheng,16,CN,1571701619,27,40.62,120.71,53.92,3.0
Moelv,100,NO,1571701621,97,60.93,10.7,37.99,3.91
Eyl,0,SO,1571701624,79,7.98,49.82,80.47,12.01
Ilulissat,7,GL,1571701626,41,69.22,-51.1,19.4,3.36
Los Llanos de Aridane,40,ES,1571701628,59,28.66,-17.92,66.2,10.29
Sisimiut,46,GL,1571701630,57,66.94,-53.67,21.07,10.56
Broken Hill,85,AU,1571701631,25,-31.97,141.45,73.4,13.87
Ryotsu,75,JP,1571701633,88,38.08,138.43,62.6,4.7
Nazarovo,95,RU,1571701635,79,56.01,90.42,20.03,6.98
Sibolga,79,ID,1571701637,94,1.74,98.78,72.28,1.72
Sterling,1,US,1571701639,72,39.0,-77.4,62.01,3.36
Krasnaya Gorka,100,RU,1571701641,81,55.19,56.67,41.72,19.6
Itzehoe,48,DE,1571701643,87,53.92,9.52,52.0,4.7
Nacala,0,MZ,1571701645,90,-14.56,40.69,73.62,5.21
Simao,65,CN,1571701647,97,22.76,100.79,60.13,3.02
