City,Cloudiness (%),Country,Date,Humidity (%),Latitude,Longitude,Max Temp (F),Wind Speed (mph)
Bluff,24,AU,1571349873,82,-23.58,149.07,71.57,1.99
Yichang,0,CN,1571349874,94,30.77,111.32,47.38,3.22
Airai,5,TL,1571349876,71,-8.93,125.41,69.07,3.89
Busselton,0,AU,1571349878,71,-33.64,115.35,44.01,17.67
Rikitea,17,PF,1571349881,80,-23.12,-134.97,71.91,9.15
Nanortalik,100,GL,1571349883,77,60.14,-45.24,39.03,2.71
Norfolk,1,US,1571349884,38,36.85,-76.29,63.0,8.05
Castro,90,CL,1571349886,87,-42.48,-73.76,51.8,3.36
Hermanus,0,ZA,1571349888,91,-34.42,19.24,63.0,13.73
Saldanha,96,PT,1571349889,93,41.42,-6.55,58.32,2.71
Bredasdorp,0,ZA,1571349891,87,-34.53,20.04,63.0,1.12
Atuona,3,PF,1571349893,76,-9.8,-139.03,79.96,19.8
Ushuaia,40,AR,1571349894,61,-54.81,-68.31,50.0,8.05
Mataura,0,NZ,1571349896,69,-46.19,168.86,53.01,13.0
Sanica,0,BA,1571349898,100,44.62,16.65,51.8,3.74
Punta Arenas,40,CL,1571349899,54,-53.16,-70.91,50.0,31.09
Hobart,75,AU,1571349901,54,-42.88,147.33,55.0,11.41
Yellowknife,90,CA,1571349903,89,62.45,-114.38,34.0,8.05
Provideniya,75,RU,1571349904,80,64.42,-173.23,30.2,2.24
Qaanaaq,100,GL,1571349906,85,77.48,-69.36,13.18,11.07
Uray,0,RU,1571349908,66,60.13,64.8,25.2,1.97
Chokurdakh,98,RU,1571349909,96,70.62,147.9,13.79,9.22
Cidreira,100,BR,1571349911,92,-30.17,-50.22,69.59,16.69
Barabai,100,ID,1571349913,95,-2.59,115.38,74.35,1.16
Nome,1,US,1571349915,59,30.04,-94.42,66.2,5.82
Roseburg,75,US,1571349916,55,43.22,-123.34,62.01,4.7
Pemberton,99,AU,1571349918,96,-34.44,116.03,44.01,2.57
Bubaque,100,GW,1571349920,81,11.28,-15.83,82.84,9.19
Vaini,79,IN,1571349921,92,15.34,74.49,75.26,2.21
Thompson,90,CA,1571349923,74,55.74,-97.86,39.2,5.82
Artemisa,75,CU,1571349925,94,22.81,-82.76,80.6,6.93
Jamestown,24,AU,1571349926,48,-33.21,138.6,47.85,7.61
Saint-Philippe,90,CA,1571349928,87,45.36,-73.48,45.0,19.46
Butaritari,19,KI,1571349930,69,3.07,172.79,83.87,9.26
Ponta do Sol,84,BR,1571349931,53,-20.63,-46.0,77.6,3.02
Minab,0,IR,1571349933,83,27.15,57.07,82.4,4.7
Santa Maria,0,BR,1571349935,35,-16.02,-48.01,86.0,8.05
Kinablangan,73,PH,1571349936,90,7.69,126.55,72.38,3.27
Pochutla,75,MX,1571349938,74,15.74,-96.47,86.0,11.41
New Norfolk,75,AU,1571349940,54,-42.78,147.06,55.0,11.41
Yurga,100,RU,1571349941,96,55.71,84.93,34.28,12.1
Padang,100,ID,1571349943,88,-0.92,100.36,77.64,13.22
Murray Bridge,70,AU,1571349945,80,-35.12,139.28,57.0,7.0
Darhan,0,MN,1571349946,49,49.49,105.92,35.57,7.58
Ancud,90,CL,1571349948,87,-41.87,-73.83,51.8,3.36
Dickinson,1,US,1571349950,39,46.88,-102.79,66.0,17.22
Monrovia,20,LR,1571349951,94,6.33,-10.8,78.8,7.36
Hilo,20,US,1571349953,58,19.71,-155.08,84.2,6.93
Cherskiy,79,RU,1571349955,96,68.75,161.3,18.94,8.97
Carnarvon,100,ZA,1571349956,56,-30.97,22.13,66.39,13.22
Vardo,90,US,1571349958,50,39.62,-77.74,54.0,14.99
Serafimovich,0,RU,1571349960,66,49.58,42.73,50.58,9.06
Cayenne,75,GF,1571349964,78,4.94,-52.33,78.8,2.24
Bambous Virieux,40,MU,1571349966,64,-20.34,57.76,71.6,12.75
Esperance,90,AU,1571349968,93,-33.86,121.89,51.8,4.7
Naze,100,NG,1571349969,98,5.43,7.07,73.66,5.17
Nikolskoye,90,RU,1571349971,93,59.7,30.79,41.0,4.47
Clyde River,90,CA,1571349973,100,70.47,-68.59,30.2,24.16
Sao Filipe,100,CV,1571349976,82,14.9,-24.5,81.36,7.45
Arona,75,IT,1571349978,100,45.76,8.56,60.01,2.24
Fortuna,75,US,1571349979,63,40.6,-124.16,62.6,8.05
Ambon,0,FR,1571349981,87,47.55,-2.56,60.8,9.17
Broken Hill,0,AU,1571349983,26,-31.97,141.45,57.2,6.93
Faya,40,SA,1571349984,45,18.39,42.45,68.0,8.05
Polis,20,CY,1571349986,83,35.04,32.42,69.8,4.7
Waipawa,100,NZ,1571349991,72,-39.94,176.59,57.99,7.0
Barcelos,88,BR,1571349993,90,-0.97,-62.93,80.5,2.84
Aklavik,75,CA,1571349994,85,68.22,-135.01,23.0,3.36
Daitari,0,IN,1571349996,91,21.11,85.83,73.26,2.06
Yumen,0,CN,1571349998,43,40.29,97.04,45.31,6.87
Mount Gambier,75,AU,1571349999,87,-37.83,140.78,48.2,13.87
Ribeira Grande,64,PT,1571350003,70,38.52,-28.7,67.11,11.14
Evensk,43,RU,1571350004,65,61.92,159.24,14.4,11.25
Itarema,0,BR,1571350006,65,-2.92,-39.92,82.4,17.22
Kruisfontein,100,ZA,1571350008,70,-34.0,24.73,67.61,2.15
Alofi,100,NU,1571350009,88,-19.06,-169.92,73.4,13.87
Hasaki,75,JP,1571350011,87,35.73,140.83,61.0,10.29
Belaya Gora,100,RU,1571350013,86,68.54,146.19,12.59,0.58
Namangan,0,UZ,1571350014,54,41.0,71.67,53.6,4.7
Nicoya,40,CR,1571350017,70,10.15,-85.45,86.0,11.41
Slave Lake,1,CA,1571350019,81,55.28,-114.77,48.2,5.82
Boa Viagem,16,BR,1571350021,33,-5.13,-39.73,83.74,4.63
Upernavik,100,GL,1571350022,68,72.79,-56.15,30.28,5.28
Lulea,90,SE,1571350026,86,65.58,22.15,37.4,3.36
Meadow Lake,75,CA,1571350027,70,54.13,-108.44,44.6,5.82
Miandrivazo,29,MG,1571350031,63,-19.53,45.46,79.1,4.25
Te Anau,7,NZ,1571350032,86,-45.41,167.72,39.59,2.73
Sitka,26,US,1571350036,14,37.17,-99.65,86.0,20.0
Ban Nahin,2,LA,1571350037,94,18.24,104.21,66.01,3.49
Kahului,90,US,1571350039,78,20.89,-156.47,84.2,10.29
Mastic Beach,20,US,1571350041,50,40.77,-72.85,57.99,19.46
Bonthe,7,SL,1571350042,86,7.53,-12.5,78.83,5.95
Rossland,91,CA,1571350050,43,49.08,-117.8,55.99,5.01
Kapaa,75,US,1571350052,66,22.08,-159.32,84.2,10.29
Severo-Kurilsk,100,RU,1571350053,73,50.68,156.12,41.22,27.13
San Patricio,78,PY,1571350055,91,-26.98,-56.83,72.1,9.98
Port Blair,39,IN,1571350057,76,11.67,92.75,83.25,8.55
Nonantola,40,IT,1571350058,77,44.68,11.04,64.0,3.36
Necochea,100,AR,1571350062,97,-38.55,-58.74,57.0,8.01
La Mira,99,MX,1571350063,88,18.04,-102.33,77.87,3.94
Ambagarh Chauki,0,IN,1571350065,88,20.78,80.75,70.24,4.74
Auki,96,NG,1571350067,68,12.18,6.51,78.79,5.21
Katobu,8,ID,1571350068,95,-4.94,122.53,71.27,3.56
Namibe,5,AO,1571350070,87,-15.19,12.15,71.36,1.32
Lebu,20,ET,1571350072,54,8.96,38.73,59.0,3.36
Puerto Ayora,90,EC,1571350073,61,-0.74,-90.35,77.0,12.75
Ishigaki,75,JP,1571350077,83,24.34,124.16,75.2,12.75
Umirim,0,BR,1571350078,78,-3.68,-39.35,79.0,20.0
Mar del Plata,0,AR,1571350080,21,-46.43,-67.52,67.7,16.71
Roebourne,0,AU,1571350082,27,-20.77,117.15,71.82,9.98
Barrow,100,AR,1571350083,96,-38.31,-60.23,54.42,0.63
Douglas,90,US,1571350085,87,58.28,-134.39,46.4,6.93
Plouzane,25,FR,1571350087,82,48.38,-4.62,55.4,17.22
Tuktoyaktuk,40,CA,1571350089,79,69.44,-133.03,24.8,20.8
Albany,90,US,1571350090,66,42.65,-73.75,51.8,16.11
Coquimbo,0,CL,1571350094,83,-29.95,-71.34,54.96,27.2
Moose Factory,75,CA,1571350095,93,51.26,-80.61,39.2,5.82
Longyearbyen,75,NO,1571350097,79,78.22,15.63,24.8,6.93
Cabo San Lucas,20,MX,1571350100,65,22.89,-109.91,90.0,13.87
Port Shepstone,0,ZA,1571350103,37,-30.74,30.45,74.29,5.39
Beringovskiy,100,RU,1571350105,88,63.05,179.32,31.99,8.55
Komsomolskiy,93,RU,1571350107,93,67.55,63.78,20.8,4.32
Rampura,0,IN,1571350108,61,24.47,75.44,71.39,4.21
Camabatela,100,AO,1571350110,98,-8.19,15.37,68.22,0.87
Kiama,20,AU,1571350112,44,-34.67,150.86,63.0,12.75
Dikson,96,RU,1571350114,92,73.51,80.55,24.02,12.26
Tucuman,21,PE,1571350117,37,-17.17,-70.89,64.73,10.29
Bethel,90,US,1571350118,74,60.79,-161.76,28.4,13.87
Kamloops,75,CA,1571350120,44,50.68,-120.34,57.2,13.87
Anadyr,40,RU,1571350122,79,64.73,177.51,26.6,8.95
Shingu,73,JP,1571350123,96,33.72,135.99,61.53,4.63
Taksimo,100,RU,1571350125,91,56.36,114.84,28.1,1.07
East London,63,ZA,1571350127,37,-33.02,27.91,74.78,8.61
Xining,0,CN,1571350129,42,36.62,101.77,32.13,1.74
Yerbogachen,53,RU,1571350130,93,61.28,108.01,38.9,10.96
Surt,22,LY,1571350132,75,31.21,16.59,74.97,14.09
Bilma,0,NE,1571350134,17,18.69,12.92,88.46,8.43
Mounana,100,GA,1571350137,97,-1.38,13.16,70.47,1.88
Tasiilaq,17,GL,1571350138,49,65.61,-37.64,32.0,2.68
Kirksville,1,US,1571350142,55,40.19,-92.58,62.6,8.05
Bereda,40,ES,1571350143,87,43.27,-7.54,60.01,6.93
Rawson,20,AR,1571350145,19,-43.3,-65.11,69.68,15.86
Innisfail,52,AU,1571350147,60,-17.52,146.03,79.0,1.01
Arraial do Cabo,0,BR,1571350148,78,-22.97,-42.02,75.2,18.34
Kavaratti,100,IN,1571350150,74,10.57,72.64,82.34,8.01
Sambava,42,MG,1571350152,95,-14.27,50.17,66.91,3.31
Astana,75,KZ,1571350153,87,51.13,71.43,33.8,11.18
Mount Darwin,0,ZW,1571350155,47,-16.77,31.58,65.72,6.38
Pangody,14,RU,1571350157,68,65.85,74.49,18.85,15.75
Dhidhdhoo,83,MV,1571350159,80,6.88,73.1,81.47,12.86
Noumea,0,NC,1571350162,38,-22.28,166.46,77.0,3.36
Dunedin,85,NZ,1571350163,72,-45.87,170.5,48.99,14.0
Vredendal,91,ZA,1571350165,91,-31.68,18.49,60.2,15.86
Georgetown,40,GY,1571350167,74,6.8,-58.16,86.0,11.41
Saskylakh,7,RU,1571350168,96,71.97,114.09,-3.08,4.43
Hastings,100,NZ,1571350170,83,-39.64,176.84,53.93,3.8
Baykit,99,RU,1571350172,99,61.68,96.39,34.92,2.59
Manyana,20,AU,1571350173,44,-35.26,150.51,63.0,12.75
Yunyang,0,CN,1571350175,83,32.84,110.81,49.11,1.97
Pevek,100,RU,1571350177,97,69.7,170.27,31.94,13.91
Daesti,5,RO,1571350179,71,44.97,24.13,54.24,2.04
Saint-Augustin,90,CA,1571350180,87,45.63,-73.98,45.0,19.46
Chuy,100,UY,1571350183,95,-33.69,-53.46,60.36,18.92
Beloha,0,MG,1571350188,69,-25.17,45.06,67.25,12.01
Lavumisa,0,ZA,1571350190,77,-27.31,31.88,68.0,3.36
Cape Town,75,ZA,1571350192,93,-33.93,18.42,64.99,17.22
Ust-Kut,85,RU,1571350193,90,56.78,105.75,33.36,3.33
Ereymentau,97,KZ,1571350195,84,51.62,73.1,33.77,11.74
Mahon,75,IE,1571350197,87,51.89,-8.4,46.99,11.41
Ndola,0,ZM,1571350198,31,-12.97,28.64,65.13,8.03
Papar,75,MY,1571350200,88,5.73,115.93,77.0,5.82
Puqi,0,CN,1571350202,70,29.72,113.88,55.93,3.13
Tongliao,99,CN,1571350203,36,43.61,122.27,47.04,4.88
Mopti,0,ML,1571350207,79,14.49,-4.19,86.0,7.0
Mosetse,0,BW,1571350208,25,-20.64,26.64,71.54,15.88
Hit,73,IQ,1571350210,41,33.64,42.83,75.93,5.55
Kodiak,1,US,1571350212,45,39.95,-94.76,69.01,13.87
Port Alfred,67,ZA,1571350213,90,-33.59,26.89,66.99,7.0
Contamana,100,PE,1571350215,41,-7.35,-75.01,91.43,1.43
Margate,75,AU,1571350218,54,-43.03,147.26,55.0,11.41
Vao,100,EE,1571350220,97,59.1,26.19,46.26,3.4
Mahibadhoo,100,MV,1571350222,75,3.78,72.97,82.97,10.94
Belokurikha,82,RU,1571350223,84,52.0,84.99,35.3,15.35
Avarua,100,CK,1571350228,69,-21.21,-159.78,78.8,17.22
Kasongo-Lunda,100,CD,1571350231,97,-6.48,16.82,67.94,1.9
Idrinskoye,100,RU,1571350235,73,54.37,92.14,36.2,5.75
Quarter,100,GB,1571350236,93,55.74,-4.03,50.0,8.05
Havre-Saint-Pierre,90,CA,1571350238,61,50.23,-63.6,46.4,18.34
Santa Cruz,3,BR,1571350240,50,-6.22,-36.02,80.61,16.8
Los Banos,1,US,1571350241,35,37.06,-120.85,75.2,17.22
Qingyuan,100,CN,1571350243,91,27.62,119.06,55.61,1.68
Plettenberg Bay,100,ZA,1571350245,92,-34.05,23.37,62.32,2.95
Keti Bandar,0,PK,1571350246,75,24.14,67.45,83.04,15.46
Thunder Bay,20,CA,1571350248,74,48.41,-89.26,46.4,8.05
Kropotkin,0,RU,1571350251,61,45.43,40.58,61.0,6.62
Boo,64,NG,1571350253,81,7.44,8.9,77.12,2.04
Merauke,0,ID,1571350255,81,-8.49,140.4,76.31,22.26
Hithadhoo,100,MV,1571350258,77,-0.6,73.08,82.41,13.09
Port Elizabeth,90,US,1571350260,44,39.31,-74.98,59.0,17.22
College,75,US,1571350263,57,64.86,-147.8,33.8,3.36
Saint-Francois,0,FR,1571350265,93,46.42,3.91,53.6,2.24
Maragogi,30,BR,1571350266,82,-9.01,-35.22,72.64,4.76
Berlevag,0,NO,1571350268,79,70.86,29.09,28.4,20.8
Gat,20,SN,1571350270,94,14.69,-16.54,89.6,5.82
Rio Hondo,28,GT,1571350271,79,15.05,-89.58,76.54,3.29
Tiksi,0,RU,1571350275,87,71.64,128.87,2.97,7.7
Leningradskiy,100,RU,1571350276,89,69.38,178.42,34.87,13.44
Salalah,20,OM,1571350280,78,17.01,54.1,82.4,3.36
Gimli,58,CA,1571350281,51,50.63,-96.99,54.0,5.99
Agucadoura,75,PT,1571350283,87,41.43,-8.78,59.0,1.12
Hami,49,CN,1571350286,40,42.84,93.51,51.65,4.34
Labuhan,100,ID,1571350288,81,-2.54,115.51,74.04,1.23
Garden City,75,US,1571350291,43,43.62,-116.24,57.99,8.05
Hambantota,75,LK,1571350294,100,6.12,81.12,77.0,3.36
Quatre Cocos,40,MU,1571350296,64,-20.21,57.76,71.6,12.75
Torbay,90,CA,1571350298,87,47.66,-52.73,46.99,11.41
Marzuq,12,YE,1571350299,55,14.4,46.47,72.33,1.05
Suez,0,EG,1571350301,78,29.97,32.54,69.94,12.37
Lompoc,1,US,1571350304,40,34.64,-120.46,81.0,16.11
Souillac,0,FR,1571350306,93,45.6,-0.6,57.2,9.17
Victoria,75,BN,1571350308,94,5.28,115.24,78.8,2.53
Manadhoo,57,MV,1571350309,74,5.77,73.38,81.98,6.78
Sangar,100,RU,1571350311,90,63.92,127.47,25.69,7.31
San Quintin,100,PH,1571350313,86,17.54,120.52,70.31,5.77
Wagar,100,US,1571350314,67,31.44,-87.99,66.0,4.79
Port Lincoln,89,AU,1571350316,77,-34.72,135.86,56.97,24.27
Namalenga,30,TZ,1571350318,67,-10.95,39.1,77.46,5.14
Aljezur,91,PT,1571350319,95,37.31,-8.8,66.99,4.0
Ust-Tsilma,61,RU,1571350321,93,65.44,52.15,27.92,1.34
Hare Bay,90,CA,1571350323,93,48.86,-53.99,44.6,12.75
Baturaja,96,ID,1571350324,97,-4.12,104.17,72.27,0.81
Saint-Louis,0,SN,1571350326,89,16.03,-16.5,84.2,4.7
Gigmoto,0,PH,1571350328,82,13.78,124.39,81.98,11.18
Byron Bay,0,AU,1571350329,68,-28.65,153.62,77.0,13.87
Tornio,90,FI,1571350331,100,61.12,27.27,37.4,8.05
Cumberland,75,US,1571350333,71,41.97,-71.43,53.6,17.22
Ponta Delgada,20,PT,1571350334,72,37.73,-25.67,71.01,5.82
Erenhot,73,CN,1571350336,63,43.65,111.97,45.8,6.87
Iwanai,0,JP,1571350339,71,42.97,140.51,35.72,6.51
Pizarro,55,CO,1571350341,82,4.95,-77.37,79.39,12.03
Ilulissat,75,GL,1571350343,49,69.22,-51.1,26.6,3.36
Bundaberg,8,AU,1571350344,78,-24.87,152.35,81.0,5.82
Ahipara,66,NZ,1571350346,82,-35.17,173.16,59.14,20.09
Puerto Rico,30,CO,1571350348,87,1.91,-75.15,65.61,3.06
Aguimes,40,ES,1571350349,64,27.91,-15.45,71.6,12.75
Srednekolymsk,40,RU,1571350351,99,67.46,153.71,1.19,2.21
Almaznyy,0,RU,1571350353,93,48.03,40.04,51.8,11.18
Oksfjord,60,NO,1571350354,79,70.24,22.35,26.6,12.75
Port Hueneme,20,US,1571350359,60,34.15,-119.2,80.01,10.29
Shache,100,CN,1571350363,61,38.42,77.24,55.0,1.99
Lavrentiya,29,RU,1571350366,93,65.58,-170.99,22.11,2.82
Faanui,10,PF,1571350368,81,-16.48,-151.75,79.64,13.24
Henties Bay,0,NA,1571350369,91,-22.12,14.28,63.0,3.0
Cururupu,12,BR,1571350371,70,-1.82,-44.87,79.62,4.63
Port Macquarie,0,AU,1571350373,44,-31.43,152.91,64.99,5.82
Cockburn Town,12,TC,1571350374,69,21.46,-71.14,83.8,5.01
Fairbanks,75,US,1571350376,51,64.84,-147.72,37.4,2.24
Iqaluit,75,CA,1571350378,98,63.75,-68.52,32.0,6.93
Axim,9,GH,1571350379,88,4.87,-2.24,78.34,9.53
Caravelas,45,BR,1571350381,76,-17.73,-39.27,75.14,9.19
Constitucion,75,MX,1571350383,34,23.99,-104.67,80.6,8.05
Mindelo,75,PT,1571350384,87,41.31,-8.72,59.0,1.12
Manzhouli,51,CN,1571350386,26,49.6,117.43,38.54,5.84
Lagoa,40,PT,1571350388,88,37.14,-8.45,66.99,5.82
Halifax,40,CA,1571350389,87,44.65,-63.58,55.99,14.99
Kunashak,75,RU,1571350391,80,55.7,61.55,35.6,8.95
Ahuimanu,75,US,1571350393,70,21.44,-157.84,87.8,13.87
Burnie,100,AU,1571350394,90,-41.05,145.91,51.01,8.01
Geraldton,75,CA,1571350396,60,49.72,-86.95,39.2,8.05
Chumikan,20,RU,1571350399,80,54.72,135.31,27.33,8.23
El Bagre,87,CO,1571350401,65,7.6,-74.8,85.65,5.7
Westport,20,US,1571350403,50,41.14,-73.36,57.99,19.46
Eucaliptus,87,BO,1571350406,37,-17.6,-67.51,60.47,12.95
Manthani,99,IN,1571350408,93,18.65,79.67,74.06,3.6
Payson,75,US,1571350409,32,40.04,-111.73,75.0,10.29
Khatanga,65,RU,1571350411,96,71.98,102.47,4.0,2.06
Chadan,91,RU,1571350413,64,51.29,91.58,35.74,4.76
Sao Miguel do Araguaia,87,BR,1571350414,27,-13.28,-50.16,95.3,4.47
Codrington,0,AU,1571350416,68,-28.95,153.24,75.0,3.36
Lamar,1,US,1571350418,5,38.09,-102.62,91.4,17.22
Shenzhen,40,CN,1571350419,73,22.54,114.05,78.8,8.05
Naryan-Mar,81,RU,1571350421,84,67.67,53.09,25.71,6.11
Caconda,33,AO,1571350423,72,-13.73,15.06,69.74,5.46
Hay River,90,CA,1571350424,80,60.82,-115.79,39.2,9.17
Frunze,90,KZ,1571350428,93,43.71,77.27,42.8,6.71
Rocha,100,UY,1571350429,96,-34.48,-54.34,59.46,16.08
Barinitas,71,VE,1571350431,93,8.76,-70.41,59.03,2.89
Sarai Sidhu,0,PK,1571350433,73,30.59,71.97,75.2,1.36
Mvomero,75,TZ,1571350434,100,-6.3,37.45,69.8,5.53
Talnakh,0,RU,1571350436,85,69.49,88.39,10.4,29.08
Abu Dhabi,0,AE,1571350439,83,24.47,54.37,84.2,3.36
Hasilpur,0,PK,1571350441,22,29.69,72.55,75.86,2.95
Poddorye,8,RU,1571350442,97,57.47,31.12,46.3,4.9
Bulgan,26,MN,1571350444,52,48.81,103.53,35.52,4.54
Kupang,10,ID,1571350446,70,-10.16,123.6,76.92,10.51
Kathu,0,ZA,1571350447,36,-27.7,23.05,66.99,0.65
Soyo,92,AO,1571350449,84,-6.13,12.37,78.88,10.89
Irbeyskoye,100,RU,1571350452,81,55.64,95.45,39.39,14.09
Zhangye,0,CN,1571350454,25,38.94,100.46,45.81,6.2
Businga,66,CD,1571350456,94,3.34,20.89,71.25,3.22
Shelopugino,5,RU,1571350457,42,51.65,117.56,34.53,4.54
Patitirion,7,GR,1571350461,87,39.15,23.87,60.8,2.24
Cuiluan,0,CN,1571350462,74,47.72,128.65,33.56,1.88
Turochak,100,RU,1571350464,87,52.26,87.12,35.07,10.22
Wanning,83,AT,1571350466,93,48.64,13.53,50.0,2.24
Almeria,10,ES,1571350467,77,36.84,-2.46,64.0,4.7
Laguna,40,BZ,1571350469,63,16.17,-88.94,91.4,4.7
Vila Franca do Campo,20,PT,1571350471,72,37.72,-25.43,71.01,5.82
Lorengau,100,PG,1571350472,82,-2.02,147.27,80.86,12.88
Mareeba,20,AU,1571350474,74,-16.99,145.42,78.8,11.41
Cap-aux-Meules,90,CA,1571350476,93,47.38,-61.86,50.0,41.38
Simao,31,CN,1571350477,99,22.76,100.79,58.81,1.1
Great Bend,1,US,1571350479,24,38.36,-98.78,80.6,18.34
Pacific Grove,1,US,1571350481,48,36.62,-121.92,72.0,18.34
Kamenka,0,MD,1571350482,88,48.03,28.7,42.01,0.43
Chhibramau,12,IN,1571350484,68,27.15,79.5,75.87,3.96
Pindobacu,0,BR,1571350486,39,-10.74,-40.36,76.81,5.3
Quimper,52,FR,1571350487,87,48.0,-4.1,57.2,16.11
Ambilobe,10,MG,1571350489,68,-13.19,49.05,75.86,11.56
Hobyo,100,SO,1571350491,79,5.35,48.53,79.96,8.25
Goundam,0,ML,1571350492,15,16.42,-3.66,95.39,10.87
Chabahar,0,IR,1571350494,55,25.29,60.65,79.82,7.36
Grootfontein,0,NA,1571350496,18,-19.56,18.1,70.6,7.47
Huarmey,33,PE,1571350497,87,-10.07,-78.15,62.48,13.56
Virginia Beach,1,US,1571350499,39,36.85,-75.98,63.0,8.05
Lubango,0,AO,1571350501,64,-14.92,13.49,73.97,3.83
Bedford,75,US,1571350503,37,32.84,-97.14,75.0,9.17
Terekli-Mekteb,0,RU,1571350504,86,44.16,45.87,55.81,7.49
Olutanga,100,PH,1571350506,78,7.31,122.85,80.23,4.23
Okhotsk,100,RU,1571350508,61,59.36,143.24,21.79,15.28
Taltal,0,CL,1571350509,65,-25.41,-70.49,60.04,7.25
Bathsheba,20,BB,1571350511,78,13.22,-59.52,82.4,13.87
Hamilton,75,CA,1571350513,75,43.26,-79.87,48.2,14.99
Saint George,20,GR,1571350514,88,39.45,22.34,62.6,1.57
Pangnirtung,90,CA,1571350516,86,66.15,-65.72,33.8,2.24
Norman Wells,90,CA,1571350518,84,65.28,-126.83,32.0,3.36
Amga,54,RU,1571350520,96,60.89,131.98,26.05,2.33
North Bend,90,US,1571350521,77,43.41,-124.22,61.0,13.87
Kijang,90,KR,1571350523,77,35.24,129.21,62.6,6.93
Baft,0,IR,1571350525,46,29.23,56.61,42.41,3.42
Edd,79,ER,1571350528,48,13.93,41.69,88.3,5.91
Karpogory,24,RU,1571350529,95,64.0,44.44,27.74,3.13
Vanimo,31,PG,1571350531,79,-2.67,141.3,80.18,8.72
Kurilsk,51,RU,1571350533,64,45.23,147.88,46.07,19.89
Inirida,69,CO,1571350534,68,3.87,-67.92,86.91,1.72
Dharchula,0,IN,1571350536,74,29.85,80.53,40.09,4.07
Poum,100,MK,1571350538,74,41.28,20.71,52.53,0.85
Lac-au-Saumon,90,CA,1571350540,93,48.42,-67.35,43.0,26.4
Los Llanos de Aridane,100,ES,1571350541,52,28.66,-17.92,69.8,6.93
Mehamn,0,NO,1571350543,68,71.03,27.85,28.4,16.11
Vila Velha,20,BR,1571350545,78,-3.71,-38.6,80.6,10.29
Walvis Bay,39,NA,1571350546,87,-22.95,14.51,63.0,6.93
Deputatskiy,98,RU,1571350548,91,69.3,139.9,11.06,2.77
Quelimane,0,MZ,1571350551,87,-17.88,36.89,69.74,3.06
Grindavik,0,IS,1571350553,86,63.84,-22.43,41.0,2.24
Porto Novo,20,BR,1571350555,83,-23.68,-45.44,71.6,17.22
Hervey Bay,23,AU,1571350556,78,-25.3,152.85,81.0,5.82
Port Hedland,0,AU,1571350558,68,-20.31,118.58,68.0,8.05
Palmer,40,AU,1571350560,71,-34.85,139.16,55.0,16.11
Sharanga,100,RU,1571350561,98,57.18,46.54,45.2,2.86
Udachnyy,90,RU,1571350563,95,66.42,112.4,32.0,4.47
Viedma,92,AR,1571350565,81,-40.81,-62.99,55.97,7.74
Barabinsk,91,RU,1571350566,74,55.35,78.35,28.91,12.15
Guanay,99,BO,1571350568,64,-15.5,-67.88,79.82,2.21
Kjollefjord,0,NO,1571350570,68,70.95,27.35,28.4,16.11
Phalombe,8,MW,1571350571,88,-15.81,35.65,63.78,8.72
Somerset,75,US,1571350573,71,41.77,-71.13,54.0,17.22
Pisco,0,PE,1571350575,30,-13.71,-76.2,71.6,17.22
Andros Town,40,BS,1571350579,70,24.73,-77.79,84.2,8.05
Semirom,3,IR,1571350581,54,31.41,51.57,40.24,3.02
Saint-Pierre,40,FR,1571350583,93,48.95,4.24,57.2,13.87
Hofn,100,IS,1571350585,84,64.25,-15.21,26.99,22.82
Soderhamn,100,SE,1571350586,98,61.3,17.06,42.01,3.31
Sangre Grande,20,TT,1571350588,83,10.59,-61.13,82.0,4.7
Mozarlandia,49,BR,1571350590,33,-14.74,-50.57,93.7,3.38
Malanje,100,AO,1571350591,93,-9.54,16.35,67.16,2.17
Kayerkan,0,RU,1571350593,85,69.35,87.76,10.4,29.08
Toora-Khem,100,RU,1571350595,96,52.47,96.11,32.37,8.7
Jacala,97,MX,1571350596,67,21.0,-99.19,70.91,2.62
Canutama,74,BR,1571350598,45,-6.53,-64.38,92.35,1.72
Sept-Iles,90,CA,1571350600,58,50.2,-66.38,46.99,10.29
Klaksvik,100,FO,1571350601,100,62.23,-6.59,46.4,9.17
Katsuura,75,JP,1571350603,88,33.93,134.5,68.0,4.7
Nivala,100,FI,1571350605,95,63.93,24.96,30.99,4.0
Beyneu,0,KZ,1571350611,55,45.32,55.19,53.32,15.43
Mahebourg,40,MU,1571350613,64,-20.41,57.7,71.6,13.87
Luderitz,78,NA,1571350614,78,-26.65,15.16,61.02,24.14
Asyut,0,EG,1571350616,50,27.18,31.19,77.0,13.87
Mayumba,100,GA,1571350618,86,-3.44,10.65,78.57,7.72
Emba,20,CY,1571350621,83,34.81,32.42,71.6,4.7
Nadym,48,RU,1571350623,64,65.53,72.51,21.37,10.42
Rolla,1,US,1571350624,39,37.95,-91.77,66.0,3.36
Ixtapa,90,MX,1571350626,79,20.71,-105.21,84.2,11.41
Manokwari,100,ID,1571350628,80,-0.87,134.08,73.66,5.08
Bud,100,NO,1571350629,87,62.91,6.91,46.4,10.29
Chicama,75,PE,1571350631,82,-7.84,-79.15,64.4,9.17
Kampene,100,CD,1571350633,97,-3.59,26.67,68.94,0.27
Yazd,20,IR,1571350635,22,31.89,54.36,64.4,1.3
Narsaq,100,GL,1571350638,52,60.91,-46.05,44.6,18.34
Fort-Shevchenko,0,KZ,1571350640,58,44.51,50.26,64.81,14.54
Bajil,0,ES,1571350641,60,38.23,-2.07,52.0,1.99
Batemans Bay,0,AU,1571350643,48,-35.71,150.18,62.01,1.99
Molepolole,0,BW,1571350645,26,-24.41,25.52,71.6,1.12
Saint Anthony,75,US,1571350646,25,43.97,-111.68,64.4,20.8
Sioux Lookout,20,CA,1571350648,61,50.1,-91.92,46.4,6.93
Tuatapere,0,NZ,1571350650,67,-46.13,167.69,54.0,11.99
Biograd na Moru,0,HR,1571350651,100,43.94,15.45,55.0,3.36
Kanniyakumari,100,IN,1571350653,78,8.08,77.57,82.01,10.0
Betare Oya,100,CM,1571350656,95,5.6,14.08,66.69,1.7
Azul,100,AR,1571350658,83,-36.78,-59.86,62.01,4.21
Herat,0,AF,1571350660,39,34.35,62.22,49.15,8.19
Kavieng,100,PG,1571350662,75,-2.57,150.8,83.42,15.17
Muros,40,ES,1571350663,93,42.77,-9.06,57.99,5.82
Ayame,96,CI,1571350665,94,5.61,-3.16,74.52,3.33
Shimoda,99,JP,1571350667,94,34.7,138.93,63.0,1.99
Ayan,0,IR,1571350668,32,38.23,44.7,45.49,4.14
Fairfield,1,US,1571350670,31,38.25,-122.04,75.99,5.82
Pedasi,100,PA,1571350672,76,7.53,-80.03,80.12,2.19
Zheshart,30,RU,1571350675,97,62.09,49.59,26.12,4.23
Unai,29,BR,1571350677,34,-16.36,-46.91,83.8,3.42
Aykhal,90,RU,1571350678,93,65.95,111.51,32.0,4.47
Novikovo,58,RU,1571350680,82,51.15,37.89,52.47,7.76
Ola,0,RU,1571350682,54,59.58,151.3,26.95,7.43
Aksarka,4,RU,1571350683,92,66.56,67.8,20.06,6.71
Sitrah,99,BH,1571350687,70,26.15,50.62,87.8,4.7
Kaitangata,9,NZ,1571350688,68,-46.28,169.85,47.65,10.25
Heihe,0,RU,1571350690,52,50.24,127.51,41.0,8.95
Mezhdurechensk,100,RU,1571350692,96,53.69,88.07,34.76,13.91
Mayo,90,CA,1571350693,69,63.59,-135.9,35.6,2.24
Otukpo,100,NG,1571350695,97,7.19,8.13,73.41,6.51
Abha,40,SA,1571350697,45,18.22,42.5,66.2,8.05
Manga,20,PK,1571350699,73,31.31,74.05,69.8,11.41
Little Current,40,CA,1571350700,61,45.98,-81.93,48.2,11.41
Shawinigan,90,CA,1571350702,93,46.54,-72.75,43.0,16.11
Zyryanka,67,RU,1571350704,85,65.73,150.89,8.2,5.64
Robertsport,99,LR,1571350705,85,6.75,-11.37,78.83,7.61
Reforma,75,MX,1571350707,34,24.02,-104.65,80.6,8.05
Matamoros,90,US,1571350709,73,25.87,-97.51,77.0,12.75
Semporna,75,MY,1571350710,94,4.48,118.61,75.2,5.82
Mitsamiouli,10,KM,1571350712,83,-11.38,43.28,79.1,10.51
Sistranda,0,NO,1571350714,75,63.73,8.83,46.99,14.99
Tiznit,0,MA,1571350715,82,29.7,-9.73,66.86,14.38
Carutapera,0,BR,1571350717,73,-1.2,-46.02,80.68,8.81
Sinnamary,12,GF,1571350719,79,5.38,-52.96,82.79,16.13
Silvan,40,TR,1571350720,52,38.14,41.01,66.2,5.82
Kurchum,26,KZ,1571350722,66,48.57,83.65,40.32,17.87
Biltine,80,TD,1571350727,47,14.53,20.93,86.78,5.14
Uchaly,96,RU,1571350730,89,54.32,59.38,31.38,7.54
Chapais,90,CA,1571350732,93,49.78,-74.86,42.8,9.17
Ossora,100,RU,1571350733,81,59.24,163.07,26.43,4.36
Dunhua,75,CN,1571350735,83,43.37,128.23,35.61,4.41
Rohatyn,0,UA,1571350740,93,49.41,24.61,44.6,2.35
High Rock,75,BS,1571350742,74,26.63,-78.28,82.4,4.7
Clinton,20,US,1571350743,62,41.28,-72.53,57.99,11.41
Kushima,75,JP,1571350745,88,31.5,131.29,69.8,14.99
Puerto Escondido,90,MX,1571350750,74,15.86,-97.07,82.4,5.82
Bogorodskoye,0,RU,1571350751,67,52.37,140.44,30.68,7.29
Znamenskoye,100,RU,1571350753,80,57.13,73.82,27.2,6.96
Gejiu,98,CN,1571350755,98,23.36,103.16,56.67,3.58
Nemuro,52,JP,1571350758,70,43.32,145.57,47.04,11.03
Kieta,100,PG,1571350760,79,-6.22,155.63,81.6,10.71
Ketchikan,90,US,1571350761,93,55.34,-131.65,51.8,17.22
Roros,100,NO,1571350763,93,62.57,11.38,37.4,9.17
Cotonou,40,BJ,1571350765,88,6.37,2.43,80.6,9.17
Oban,93,GB,1571350766,86,56.42,-5.47,52.0,1.01
Marystown,100,CA,1571350768,2,47.17,-55.16,51.01,10.0
West Bay,90,CA,1571350770,71,49.34,-123.21,57.0,9.17
Petropavlovsk-Kamchatskiy,73,RU,1571350771,60,53.05,158.65,39.2,8.95
Heyang,0,CN,1571350773,96,26.1,107.47,47.61,2.98
Sokoni,0,CD,1571350775,31,-12.89,28.78,65.13,8.03
Tall Kayf,0,TR,1571350776,43,37.08,41.07,73.4,11.41
Taua,100,BR,1571350778,58,-3.62,-49.62,85.61,2.75
Baruun-Urt,0,MN,1571350780,67,46.68,113.28,33.34,7.45
Havoysund,0,NO,1571350781,73,71.0,24.66,26.6,13.87
Liuzhou,30,CN,1571350783,91,24.32,109.41,57.37,2.39
Port Hardy,75,CA,1571350785,87,50.7,-127.42,50.0,6.93
Coahuayana,96,MX,1571350786,80,18.62,-100.35,78.18,0.56
Dudinka,0,RU,1571350788,85,69.41,86.18,10.4,29.08
Banihal,0,IN,1571350790,59,33.44,75.2,39.68,2.53
Muravlenko,39,RU,1571350791,65,63.79,74.5,21.28,13.8
Homer,90,US,1571350793,86,59.64,-151.54,42.8,3.36
Hakui,40,JP,1571350795,87,36.89,136.78,57.2,3.36
Fez,0,MA,1571350796,58,34.03,-5.02,59.0,8.05
Egvekinot,97,RU,1571350798,95,66.32,-179.17,19.39,10.47
East Liverpool,90,US,1571350800,65,40.62,-80.58,50.0,9.17
Buncrana,20,GB,1571350801,87,55.14,-7.45,46.4,10.29
Pauini,94,BR,1571350803,53,-7.71,-67.0,87.63,1.12
Okha,1,RU,1571350806,69,53.59,142.95,41.78,13.71
Iquique,90,CL,1571350808,67,-20.22,-70.14,62.6,14.99
Yablonovo,0,RU,1571350811,76,50.85,37.36,53.6,8.95
Nandu,0,CN,1571350813,93,31.44,119.33,61.0,4.65
Zemen,0,BG,1571350815,66,42.48,22.75,54.0,5.82
Eltham,0,GB,1571350816,87,51.45,0.05,54.0,8.05
Coihaique,75,CL,1571350818,54,-45.58,-72.07,55.4,6.93
Biu,68,NG,1571350820,76,10.61,12.19,74.16,4.25
Templin,0,DE,1571350821,82,53.12,13.5,61.0,5.82
Shubarshi,0,KZ,1571350823,45,48.59,57.19,43.96,6.46
Igrim,0,RU,1571350825,70,63.19,64.42,23.24,2.8
Kangaatsiaq,100,GL,1571350828,50,68.31,-53.46,34.26,6.87
La Macarena,97,CO,1571350830,76,2.18,-73.79,77.78,0.92
Artyom,0,RU,1571350831,92,43.36,132.19,28.4,4.47
Palm Valley,90,US,1571350833,73,26.2,-97.75,82.99,17.22
Half Moon Bay,1,US,1571350835,67,37.46,-122.43,70.0,16.11
Qitaihe,0,CN,1571350836,65,45.77,131.01,36.51,3.62
Waddan,0,LY,1571350838,74,29.16,16.14,66.25,5.06
Jinchang,0,CN,1571350840,40,38.52,102.19,43.06,2.98
Lata,4,IN,1571350841,86,30.78,78.62,25.02,1.48
Akhmeta,0,GE,1571350843,82,42.03,45.21,55.4,3.36
Dolores,50,UY,1571350846,86,-33.53,-58.22,67.9,8.43
Vestmannaeyjar,67,IS,1571350848,64,63.44,-20.27,43.38,7.74
Tabou,0,CI,1571350850,94,4.42,-7.36,75.1,2.89
Nusaybin,0,TR,1571350851,43,37.08,41.21,73.4,11.41
Guerrero Negro,21,MX,1571350853,86,27.97,-114.04,66.73,12.24
Ensley,1,US,1571350855,42,33.51,-86.89,68.0,5.82
Ancona,1,US,1571350856,47,41.04,-88.87,57.99,4.59
Salamanca,75,MX,1571350858,47,20.57,-101.19,75.2,6.04
