City,Cloudiness,Country,Date,Humidity,Latitude,Longitude,Max Temp,Wind Speed
Albany,90,US,1571277881,81,42.65,-73.75,54.0,14.99
Port Elizabeth,1,US,1571277883,66,39.31,-74.98,57.99,23.04
Jamestown,1,AU,1571277886,32,-33.21,138.6,62.58,12.63
Wagar,63,US,1571277888,70,31.44,-87.99,54.64,5.62
The Valley,20,AI,1571277890,69,18.22,-63.06,82.99,5.82
Lengshuitan,100,CN,1571278058,69,26.41,111.6,61.02,6.37
Ribeira Grande,86,PT,1571278060,76,38.52,-28.7,60.1,8.03
East London,0,ZA,1571278063,65,-33.02,27.91,66.96,10.39
Pevek,100,RU,1571278065,80,69.7,170.27,30.0,8.37
Butaritari,97,KI,1571278067,67,3.07,172.79,82.85,3.04
Busselton,87,AU,1571278070,40,-33.64,115.35,66.0,6.11
Ixtapa,90,MX,1571278072,79,20.71,-105.21,86.0,2.19
Bethel,40,US,1571278074,80,60.79,-161.76,42.8,10.29
Puerto Ayora,4,EC,1571278076,84,-0.74,-90.35,68.0,1.99
Orzhytsya,0,UA,1571278079,69,49.79,32.7,51.91,5.79
Sambava,55,MG,1571278081,87,-14.27,50.17,68.94,2.87
Waingapu,22,ID,1571278083,77,-9.65,120.26,79.74,7.02
Lompoc,1,US,1571278085,67,34.64,-120.46,71.01,4.7
Yellowknife,90,CA,1571278088,99,62.45,-114.38,33.8,6.93
Vila,75,IT,1571278090,100,45.18,8.4,55.99,8.05
Mataura,60,NZ,1571278092,61,-46.19,168.86,55.99,10.0
Cherskiy,13,RU,1571278094,92,68.75,161.3,25.81,14.87
Barrow,95,AR,1571278097,95,-38.31,-60.23,48.16,8.49
Rozivka,0,UA,1571277933,88,47.51,38.15,52.97,9.54
Mayo,75,CA,1571277935,68,63.59,-135.9,30.2,11.41
Kiunga,80,PG,1571277937,63,-6.12,141.3,87.22,3.13
Hithadhoo,68,MV,1571277939,81,-0.6,73.08,81.79,12.42
Upata,60,VE,1571277942,84,8.02,-62.41,80.01,1.01
Castro,40,CL,1571277944,76,-42.48,-73.76,48.2,8.05
Punta Arenas,98,CL,1571277948,81,-53.16,-70.91,46.4,6.93
Asifabad,99,IN,1571277950,82,19.38,79.29,75.81,3.47
Kyzyl-Suu,78,KG,1571277953,40,42.34,78.0,49.75,4.15
Bredasdorp,0,ZA,1571277955,87,-34.53,20.04,63.0,2.62
Severo-Kurilsk,52,RU,1571277957,78,50.68,156.12,38.23,20.09
Jackson,1,US,1571277960,22,43.48,-110.76,55.4,5.82
Vaini,40,IN,1571277962,100,15.34,74.49,69.8,4.7
Cayenne,75,GF,1571277964,94,4.94,-52.33,77.0,3.75
Airai,27,TL,1571277966,18,-8.93,125.41,87.73,8.54
Padang,36,ID,1571277969,84,-0.92,100.36,76.64,3.02
Guerrero Negro,2,MX,1571277975,80,27.97,-114.04,67.93,15.4
Clyde River,90,CA,1571277977,100,70.47,-68.59,28.4,11.41
Luderitz,54,NA,1571277980,76,-26.65,15.16,59.67,14.82
Porto Walter,100,BR,1571277982,88,-8.27,-72.74,72.59,1.81
Arman,78,RU,1571277984,51,59.7,150.17,33.51,11.73
Dikson,99,RU,1571277986,68,73.51,80.55,25.47,11.67
Kananga,100,CD,1571277988,98,-5.9,22.41,68.11,2.59
Cape Town,20,ZA,1571277991,93,-33.93,18.42,63.0,13.87
Dudinka,40,RU,1571277993,85,69.41,86.18,12.2,35.79
Saskylakh,26,RU,1571277995,94,71.97,114.09,4.41,8.13
Qaanaaq,100,GL,1571277998,83,77.48,-69.36,12.6,11.0
Ushuaia,30,AR,1571278002,57,-54.81,-68.31,48.2,9.17
Honningsvag,0,NO,1571278004,72,70.98,25.97,37.27,13.13
Takoradi,38,GH,1571278006,89,4.89,-1.75,75.61,7.47
Sinnamary,19,GF,1571278009,79,5.38,-52.96,82.56,12.52
Port Alfred,0,ZA,1571278011,97,-33.59,26.89,57.99,1.99
Constitucion,75,MX,1571278013,63,23.99,-104.67,64.4,11.41
Kamenka,0,MD,1571278015,89,48.03,28.7,39.99,3.58
New Norfolk,40,AU,1571278018,62,-42.78,147.06,60.01,10.29
Kaitangata,8,NZ,1571278184,48,-46.28,169.85,54.0,17.0
Saldanha,100,PT,1571278186,84,41.42,-6.55,55.71,9.46
Bluff,30,AU,1571278188,34,-23.58,149.07,91.22,11.12
Tasiilaq,10,GL,1571278190,54,65.61,-37.64,32.0,4.04
Olinda,75,AU,1571278193,73,-37.84,145.39,55.99,23.04
Talnakh,40,RU,1571278197,85,69.49,88.39,12.2,35.79
Vila Velha,75,BR,1571278200,74,-3.71,-38.6,80.6,13.87
Chokurdakh,37,RU,1571278202,85,70.62,147.9,14.56,8.37
Quba,49,AZ,1571278204,88,41.36,48.51,53.2,2.54
Nantucket,90,US,1571278208,93,41.28,-70.1,59.0,24.16
Hobart,40,AU,1571278211,62,-42.88,147.33,60.01,10.29
Rikitea,100,PF,1571278213,86,-23.12,-134.97,71.85,9.74
Aguililla,100,MX,1571278215,99,18.74,-102.79,64.02,1.95
Ewo,90,CG,1571278217,90,-0.88,14.81,71.11,3.34
Larsnes,94,NO,1571278438,76,62.2,5.58,51.01,6.93
Rocha,100,UY,1571278440,94,-34.48,-54.34,56.39,12.95
Carnarvon,0,ZA,1571278442,18,-30.97,22.13,68.67,9.38
Maxixe,74,MZ,1571278444,75,-23.86,35.35,70.45,12.12
Baruun-Urt,95,MN,1571278447,15,46.68,113.28,48.6,8.52
Hilo,1,US,1571278449,58,19.71,-155.08,84.2,4.7
Grand Gaube,75,MU,1571278453,73,-20.01,57.66,71.6,11.41
Laguna,40,BZ,1571278455,88,16.17,-88.94,82.4,1.55
Panguna,100,PG,1571278461,94,-6.32,155.48,74.8,5.55
Paramirim,25,BR,1571278463,74,-13.44,-42.24,65.3,5.23
Klaksvik,93,FO,1571278466,100,62.23,-6.59,42.8,1.12
Warrington,0,GB,1571278468,93,53.39,-2.59,48.0,6.93
Georgetown,40,GY,1571278470,83,6.8,-58.16,82.4,6.93
Hermanus,33,ZA,1571278473,91,-34.42,19.24,63.0,1.99
Antofagasta,75,CL,1571278478,77,-23.65,-70.4,59.0,17.22
Kenai,90,US,1571278480,86,60.55,-151.26,34.0,4.7
Eyrarbakki,100,IS,1571278483,60,63.86,-21.15,41.0,4.7
Muros,90,ES,1571278485,100,42.77,-9.06,64.99,4.7
Progreso,100,UY,1571278489,82,-34.68,-56.22,60.01,13.87
Samarai,44,PG,1571278492,62,-10.62,150.67,80.64,8.71
Atuona,1,PF,1571278494,73,-9.8,-139.03,79.9,11.13
Pisco,40,PE,1571278496,82,-13.71,-76.2,66.0,16.11
Iranshahr,0,IR,1571278498,32,27.21,60.69,69.8,4.7
Manta,0,RO,1571278501,66,45.1,24.1,51.31,2.13
Fengzhen,24,CN,1571278503,47,40.43,113.15,48.36,8.0
Mumford,0,GH,1571278508,95,5.26,-0.76,71.64,3.74
Cockburn Town,100,TC,1571278511,68,21.46,-71.14,83.62,6.58
Bastia,75,IT,1571278513,77,44.6,8.98,64.99,5.82
Amapa,75,HN,1571278515,88,15.09,-87.97,80.6,8.05
Kletskaya,0,RU,1571278518,82,49.31,43.06,39.99,9.84
Fortuna,40,US,1571278520,100,40.6,-124.16,57.2,10.29
San Angelo,1,US,1571278522,29,31.46,-100.44,62.6,5.82
Nortelandia,85,BR,1571278524,84,-14.45,-56.8,74.55,4.19
Saint-Augustin,90,CA,1571278527,81,45.63,-73.98,52.0,11.41
Calama,0,CL,1571278529,23,-22.46,-68.93,53.6,5.82
Provideniya,90,RU,1571278531,86,64.42,-173.23,33.8,11.18
Caravelas,18,BR,1571278533,89,-17.73,-39.27,67.14,2.34
Plainview,1,US,1571278536,40,34.18,-101.71,64.4,5.82
Tuktoyaktuk,20,CA,1571278538,85,69.44,-133.03,23.0,13.87
Maragogi,21,BR,1571278540,76,-9.01,-35.22,77.65,14.13
Yanam,20,IN,1571278543,83,16.73,82.22,80.6,3.36
Vardo,75,US,1571278549,57,39.62,-77.74,52.0,21.92
Touros,40,BR,1571278552,83,-5.2,-35.46,73.4,3.36
Pesochnoye,99,RU,1571278556,95,58.01,39.18,44.42,8.58
Nikolskoye,90,RU,1571278560,81,59.7,30.79,42.8,6.71
Lebu,75,ET,1571278563,76,8.96,38.73,53.6,2.24
Norman Wells,75,CA,1571278565,96,65.28,-126.83,32.0,2.24
Umm Lajj,100,SA,1571278567,27,25.02,37.27,84.87,11.2
Mahebourg,75,MU,1571278569,73,-20.41,57.7,71.6,11.41
Nemuro,20,JP,1571278572,61,43.32,145.57,55.4,12.75
Oyonnax,75,FR,1571278574,87,46.26,5.66,57.99,1.12
Kurilsk,3,RU,1571278577,64,45.23,147.88,46.51,21.45
Indian Head,0,CA,1571278579,69,50.53,-103.67,41.0,2.64
Svetlogorsk,90,RU,1571278581,64,53.14,59.15,33.8,11.18
Ulaangom,100,MN,1571278583,38,49.98,92.07,46.26,3.04
Tuatapere,100,NZ,1571278585,61,-46.13,167.69,55.0,10.0
Saint George,0,GR,1571278588,87,39.45,22.34,57.2,2.19
Saint-Philippe,90,CA,1571278590,81,45.36,-73.48,52.0,11.41
Bambous Virieux,75,MU,1571278594,73,-20.34,57.76,71.6,11.41
Port Blair,46,IN,1571278597,72,11.67,92.75,84.13,7.04
Walvis Bay,98,NA,1571278599,82,-22.95,14.51,62.01,5.82
Katsuura,75,JP,1571278601,64,33.93,134.5,71.01,8.05
Matamoros,90,US,1571278603,83,25.87,-97.51,75.2,10.29
Avarua,100,CK,1571278606,69,-21.21,-159.78,77.0,11.41
Hamilton,90,CA,1571278608,87,43.26,-79.87,48.99,12.75
Puerto Madryn,40,AR,1571278610,59,-42.77,-65.04,56.7,20.2
Pleasanton,1,US,1571278614,63,37.66,-121.87,69.8,12.75
Gat,20,SN,1571278617,100,14.69,-16.54,78.8,8.05
Nabire,20,ID,1571278619,80,-3.36,135.5,83.25,6.1
Ahipara,67,NZ,1571278621,75,-35.17,173.16,70.0,12.19
Porterville,1,US,1571278625,40,36.07,-119.02,75.2,5.82
Semnan,0,IR,1571278628,30,35.58,53.39,59.0,0.93
Xuanhua,100,CN,1571278630,40,40.61,115.04,50.99,3.06
Mountain Home,40,US,1571278632,14,43.13,-115.69,66.2,8.05
Zhigalovo,81,RU,1571278634,69,54.81,105.15,39.97,3.38
Hokitika,95,NZ,1571278637,76,-42.72,170.96,53.98,5.59
Saint-Pierre,90,FR,1571278639,87,48.95,4.24,59.0,19.46
Coihaique,0,CL,1571278641,81,-45.58,-72.07,44.6,2.24
Tiksi,86,RU,1571278643,90,71.64,128.87,18.27,15.18
Imbituba,75,BR,1571278646,100,-28.24,-48.67,68.0,3.36
Eyl,90,SO,1571278648,73,7.98,49.82,80.4,7.12
Ancud,90,CL,1571278650,81,-41.87,-73.83,48.2,6.93
Goroka,4,PG,1571278652,41,-6.07,145.39,77.22,4.07
Dimona,15,IL,1571278654,90,31.07,35.04,64.0,6.71
Tura,98,RU,1571278657,90,64.27,100.22,35.13,5.21
Nanortalik,37,GL,1571278659,62,60.14,-45.24,38.61,11.7
Kulgam,0,IN,1571278661,64,33.65,75.01,49.42,0.91
Nizhniy Tsasuchey,91,RU,1571278663,17,50.52,115.13,52.81,9.41
Ciudad Bolivar,33,VE,1571278666,80,8.12,-63.55,77.76,4.95
Bilma,31,NE,1571278668,16,18.69,12.92,83.75,7.01
Puerto Colombia,75,CO,1571278670,94,10.99,-74.96,75.99,4.7
Paamiut,100,GL,1571278675,56,61.99,-49.67,38.21,11.52
Mar del Plata,21,AR,1571278677,69,-46.43,-67.52,50.56,3.52
Brigantine,90,US,1571278679,71,39.41,-74.36,57.2,28.86
Cidreira,100,BR,1571278682,90,-30.17,-50.22,67.64,27.21
Biak,49,ID,1571278684,78,-0.91,122.88,81.25,9.43
Vila Franca do Campo,20,PT,1571278686,93,37.72,-25.43,62.6,16.11
Bonavista,4,CA,1571278689,85,48.65,-53.11,44.01,7.0
Karratha,0,AU,1571278691,63,-20.74,116.85,78.75,9.94
Taltal,0,CL,1571278693,83,-25.41,-70.49,50.67,3.03
Amga,100,RU,1571278695,93,60.89,131.98,27.79,4.92
Coahuayana,100,MX,1571278698,95,18.62,-100.35,71.85,4.63
Ponta Delgada,20,PT,1571278702,93,37.73,-25.67,62.6,16.11
Mizdah,26,LY,1571278704,82,31.45,12.98,63.01,2.34
Leningradskiy,98,RU,1571278707,86,69.38,178.42,33.26,16.79
Kapaa,90,US,1571278709,83,22.08,-159.32,78.8,12.75
Mungwi,34,ZM,1571278711,82,-10.17,31.37,63.05,3.66
Inhambane,74,MZ,1571278714,75,-23.87,35.38,70.45,12.12
Lavrentiya,99,RU,1571278716,62,65.58,-170.99,32.59,17.01
Isla Mujeres,20,MX,1571278720,78,21.23,-86.73,82.4,6.93
Sun Prairie,75,US,1571278722,65,43.18,-89.21,46.99,4.7
Chuy,100,UY,1571278725,94,-33.69,-53.46,59.45,14.1
NEDJO,37,ET,1571278727,90,9.5,35.5,55.8,0.59
Sola,91,TZ,1571278729,71,-3.17,33.8,68.45,7.34
Nouadhibou,100,MR,1571278731,73,20.93,-17.03,73.4,10.29
Naica,33,MX,1571278734,60,27.86,-105.49,64.78,11.41
Sangar,100,RU,1571278736,91,63.92,127.47,21.42,14.32
Glencoe,90,CA,1571278738,87,42.75,-81.71,46.4,17.22
Te Kauwhata,56,NZ,1571278740,82,-37.4,175.15,64.0,17.22
Kamaishi,75,JP,1571278743,76,39.28,141.86,57.2,4.7
Zhigansk,100,RU,1571278745,97,66.77,123.37,30.87,14.9
Torbay,90,CA,1571278748,87,47.66,-52.73,46.99,9.17
Helsinge,90,DK,1571278750,100,56.02,12.2,55.99,3.36
Eseka,100,CM,1571278752,98,3.65,10.77,68.04,1.86
Tual,68,ID,1571278755,74,-5.67,132.75,81.7,8.2
Kautokeino,0,NO,1571278757,88,69.01,23.04,15.42,5.06
Barentu,95,ER,1571278759,53,15.11,37.59,74.52,4.14
Hualmay,31,PE,1571278761,87,-11.1,-77.61,58.42,2.91
Kamiiso,75,JP,1571278763,50,41.82,140.65,55.4,8.05
Sur,0,OM,1571278766,44,22.57,59.53,79.32,1.33
Kaeo,0,NZ,1571278768,75,-35.1,173.78,70.0,16.19
Esperance,40,AU,1571278770,48,-33.86,121.89,66.2,10.29
Ust-Nera,100,RU,1571278772,96,64.57,143.24,0.37,6.12
Arcachon,100,FR,1571278775,82,44.65,-1.18,60.8,2.24
Dire,75,ET,1571278777,76,9.18,38.92,53.6,2.24
Bumba,100,CD,1571278781,99,2.18,22.47,68.88,1.8
Codrington,0,AU,1571278783,34,-28.95,153.24,95.0,19.46
Chulumani,100,BO,1571278786,97,-16.41,-67.53,54.64,0.59
Buraydah,7,SA,1571278790,43,26.33,43.97,71.6,2.24
Tyrma,0,RU,1571278792,43,50.04,132.17,43.0,4.77
Alyangula,75,AU,1571278795,49,-13.85,136.42,91.4,11.41
Ilijas,0,BA,1571278797,100,43.95,18.27,46.4,2.24
Ponta do Sol,4,BR,1571278799,63,-20.63,-46.0,69.49,4.4
Kpandu,49,GH,1571278801,96,7.0,0.29,70.57,1.23
Flinders,14,AU,1571278804,33,-34.58,150.85,82.0,28.86
High Level,90,CA,1571278806,100,58.52,-117.13,35.6,2.24
Aguadilla,1,PR,1571278808,83,18.43,-67.15,78.8,3.36
Yumen,0,CN,1571278810,44,40.29,97.04,49.77,5.74
Maragheh,43,IR,1571278813,34,37.39,46.24,51.8,6.93
Kilmallock,80,IE,1571278815,81,52.4,-8.57,50.0,13.87
Polis,0,CY,1571278817,64,35.04,32.42,69.8,8.05
Pueblo Nuevo,40,AR,1571278824,70,-32.93,-68.73,48.2,2.24
Lethem,52,GY,1571278826,75,3.38,-59.8,79.29,6.69
Makakilo City,1,US,1571278828,58,21.35,-158.09,86.0,8.05
Najran,40,SA,1571278831,35,17.54,44.22,69.8,2.81
Cabo San Lucas,20,MX,1571278833,83,22.89,-109.91,82.4,10.29
Ambagarh Chauki,89,IN,1571278835,78,20.78,80.75,74.41,8.03
Pishva,0,IR,1571278840,37,35.31,51.73,60.8,6.93
Verkhnyaya Inta,0,RU,1571278842,91,65.99,60.32,18.93,3.5
Dzerzhinsk,20,RU,1571278844,77,56.24,43.46,41.0,13.42
Quatre Cocos,75,MU,1571278846,73,-20.21,57.76,71.6,11.41
Launceston,40,AU,1571278851,51,-41.43,147.14,59.0,5.92
Kushiro,40,JP,1571278856,50,43.11,144.15,55.4,5.82
Zheleznodorozhnyy,3,RU,1571278858,81,55.75,38.0,48.2,6.71
Aitape,100,PG,1571278861,69,-3.15,142.36,83.62,7.19
Polonnaruwa,95,LK,1571278863,77,7.94,81.0,80.55,0.73
Upernavik,100,GL,1571278865,73,72.79,-56.15,27.16,4.71
Bereda,40,ES,1571278867,100,43.27,-7.54,57.99,4.7
Vaitape,54,PF,1571278870,79,-16.52,-151.75,79.86,12.71
Faya,64,SA,1571278872,44,18.39,42.45,60.8,9.17
Novyy Urengoy,30,RU,1571278875,72,66.08,76.63,23.5,19.43
Teknaf,65,BD,1571278877,61,20.86,92.31,86.97,0.89
Emba,0,CY,1571278879,64,34.81,32.42,69.8,8.05
Lorengau,99,PG,1571278883,77,-2.02,147.27,82.72,15.34
San Rafael,67,AR,1571278886,53,-34.61,-68.33,55.26,6.48
Tazovskiy,1,RU,1571278888,81,67.47,78.7,21.94,21.65
Khatanga,47,RU,1571278890,93,71.98,102.47,4.39,1.52
Kavieng,100,PG,1571278892,76,-2.57,150.8,83.26,14.91
Phalodi,65,IN,1571278895,25,27.13,72.36,86.11,10.34
Nara,75,JP,1571278897,60,34.68,135.8,71.6,4.7
Avera,1,US,1571278899,48,33.19,-82.53,66.2,10.29
Novikovo,0,RU,1571278901,92,51.15,37.89,47.52,8.77
Yulara,1,AU,1571278904,17,-25.24,130.99,77.0,16.11
Hami,26,CN,1571278906,40,42.84,93.51,55.36,3.0
Longkou,0,CN,1571278908,38,37.64,120.47,63.36,6.68
Pacific Grove,1,US,1571278910,63,36.62,-121.92,62.01,6.93
Chesma,19,RU,1571278913,77,53.81,60.65,31.55,10.05
Ayan,92,IR,1571278915,42,38.23,44.7,46.4,2.24
North Bend,90,US,1571278917,87,43.41,-124.22,57.99,11.41
Sobolevo,0,RU,1571278919,75,54.43,31.9,48.58,10.42
Guilin,90,CN,1571278921,72,25.28,110.29,66.2,8.95
Mangrol,0,IN,1571278924,83,25.33,76.51,71.6,5.39
Nizhnevartovsk,75,RU,1571278926,86,60.93,76.58,28.4,11.18
College,75,US,1571278928,54,64.86,-147.8,30.2,4.7
Saint-Joseph,90,FR,1571278935,82,43.56,6.97,60.8,3.36
Jacksonville,75,US,1571278937,65,30.33,-81.66,78.8,6.93
Puerto Baquerizo Moreno,100,EC,1571278939,83,-0.9,-89.6,68.0,10.78
Serra Talhada,12,BR,1571278941,74,-7.99,-38.29,69.84,14.53
Jishu,0,CN,1571278944,33,44.29,126.79,55.8,3.99
Kahului,40,US,1571278946,54,20.89,-156.47,84.2,23.04
Zavetnoye,0,RU,1571278950,74,47.12,43.89,50.81,14.87
Bello,75,CO,1571278952,93,6.33,-75.56,59.0,3.36
Borujerd,18,IR,1571278955,34,33.89,48.76,53.6,1.38
Worland,1,US,1571278957,52,44.02,-107.96,55.4,4.7
Kudahuvadhoo,83,MV,1571278959,79,2.67,72.89,81.32,8.68
Zhuhai,75,CN,1571278963,93,40.71,112.04,42.8,2.24
Arraial do Cabo,0,BR,1571278966,90,-22.97,-42.02,72.14,15.67
Camacha,20,PT,1571278968,72,33.08,-16.33,68.0,6.93
San Patricio,47,PY,1571278970,98,-26.98,-56.83,63.12,4.31
Zaozerne,9,UA,1571278972,89,51.37,23.94,50.9,7.38
Carire,1,BR,1571278975,75,-3.95,-40.47,75.2,3.25
Grindavik,45,IS,1571278977,81,63.84,-22.43,42.8,6.93
Cortez,1,US,1571278979,24,37.35,-108.58,48.99,8.05
Palmer,40,AU,1571278984,44,-34.85,139.16,61.0,17.22
Wajir,100,KE,1571278986,68,1.75,40.07,79.43,12.51
Porto Nacional,20,BR,1571278990,100,-10.7,-48.41,75.2,3.36
Portland,90,US,1571278995,81,43.66,-70.25,55.99,13.87
Adre,40,TD,1571278997,84,13.47,22.2,70.97,4.33
Awbari,74,LY,1571278999,64,26.59,12.77,65.68,7.6
Taoudenni,31,ML,1571279002,25,22.68,-3.98,86.99,13.97
Faanui,54,PF,1571279004,79,-16.48,-151.75,79.86,12.71
Nizwa,0,OM,1571279006,23,22.93,57.53,76.24,4.12
Maumee,90,US,1571279008,76,41.56,-83.65,50.0,14.99
Kidal,61,ML,1571279010,18,18.44,1.41,82.47,10.44
Kenora,75,CA,1571279015,91,49.76,-94.48,39.2,3.36
Kodiak,1,US,1571279017,81,39.95,-94.76,45.0,3.33
Staryy Nadym,86,RU,1571279022,73,65.61,72.68,25.99,11.71
Ilo,100,PE,1571279024,82,-17.65,-71.34,62.33,7.66
Port Lincoln,1,AU,1571279026,43,-34.72,135.86,62.51,10.49
Isabela,18,PH,1571279028,67,10.2,122.99,82.27,4.48
Gravdal,99,NO,1571279031,71,59.79,5.78,54.0,9.17
El Dorado,20,TT,1571279033,83,10.65,-61.37,78.8,6.69
Gavle,100,SE,1571279035,97,60.67,17.14,43.0,5.01
Sherpur,0,BD,1571279037,74,25.02,90.01,81.82,2.91
Itupiranga,31,BR,1571279040,88,-5.13,-49.33,78.8,4.7
Tessalit,57,ML,1571279044,17,20.2,1.01,79.86,9.11
Vrangel,0,RU,1571279046,46,42.73,133.08,51.3,2.33
Antalaha,76,MG,1571279048,80,-14.9,50.28,76.5,21.02
Port Moresby,40,PG,1571279051,66,-9.47,147.16,86.0,11.41
Iqaluit,75,CA,1571279053,86,63.75,-68.52,28.4,5.82
Boffa,66,GN,1571279055,92,10.18,-14.04,76.95,4.67
Dunedin,65,NZ,1571279057,63,-45.87,170.5,54.0,25.01
Aswan,100,EG,1571279060,32,24.09,32.9,84.2,10.29
Leshukonskoye,98,RU,1571279064,96,64.9,45.76,29.61,3.06
Jutai,82,BR,1571279066,97,-1.71,-47.89,72.9,2.13
Lewistown,90,US,1571279069,75,40.39,-90.15,46.99,3.36
Dzerzhinskoye,100,RU,1571279071,68,56.84,95.22,49.39,11.06
Qarayeri,40,AZ,1571279073,76,40.79,46.31,53.6,4.7
Alice Springs,44,AU,1571279075,20,-23.7,133.88,73.4,17.22
Sao Filipe,75,CV,1571279080,83,14.9,-24.5,78.3,3.01
Kargasok,100,RU,1571279082,90,59.06,80.87,37.85,12.57
Linkou,0,CN,1571279084,33,45.29,130.27,51.42,3.81
Talara,0,PE,1571279086,88,-4.58,-81.27,64.6,18.51
Agadir,0,MA,1571279089,82,30.42,-9.58,59.0,3.36
Kruisfontein,0,ZA,1571279091,34,-34.0,24.73,64.45,5.99
Ust-Kut,27,RU,1571279095,77,56.78,105.75,40.42,3.3
Mendi,100,ET,1571279097,90,9.8,35.1,63.36,3.61
Lagoa,0,PT,1571279100,93,37.14,-8.45,59.0,4.7
Berlevag,0,NO,1571279102,73,70.86,29.09,36.41,10.94
Lasa,0,CY,1571279104,64,34.92,32.53,69.8,9.17
Clarence Town,3,AU,1571279106,35,-32.59,151.78,87.01,21.92
Kyaikkami,4,MM,1571279109,71,16.08,97.57,82.4,6.91
Zherdevka,0,RU,1571279111,78,51.84,41.47,42.21,9.29
Yar-Sale,0,RU,1571279113,87,66.83,70.83,23.32,12.71
Coria,68,ES,1571279116,87,39.98,-6.54,57.0,1.68
Podyuga,100,RU,1571279118,98,61.09,40.86,32.74,5.82
Ust-Kuyga,100,RU,1571279120,92,70.0,135.55,18.82,11.59
Merrill,90,US,1571279122,28,42.03,-121.6,55.4,8.05
Jinchang,44,CN,1571279124,51,38.52,102.19,44.24,4.99
Necochea,66,AR,1571279127,92,-38.55,-58.74,48.99,4.0
Kirsanov,34,RU,1571279129,75,52.65,42.73,41.4,10.92
Uhlove,0,UA,1571279133,68,44.82,33.6,63.43,3.76
Dickinson,1,US,1571279136,56,46.88,-102.79,48.2,8.05
Rehoboth,45,NA,1571279138,54,-23.31,17.08,65.01,9.77
Nuzvid,40,IN,1571279140,83,16.79,80.85,80.6,3.36
Petropavlovsk-Kamchatskiy,0,RU,1571279142,39,53.05,158.65,46.4,17.9
Tigil,99,RU,1571279144,95,57.8,158.67,32.45,6.4
Khilok,100,RU,1571279147,44,51.36,110.46,41.49,3.51
Buchanan,75,LR,1571279149,94,5.88,-10.05,78.8,2.63
La Seyne-sur-Mer,66,FR,1571279151,87,43.1,5.88,66.0,13.33
Naze,75,NG,1571279153,100,5.43,7.07,71.6,3.71
Labuhan,100,ID,1571279156,48,-2.54,115.51,91.85,2.19
Agnibilekrou,50,CI,1571279158,99,7.13,-3.2,70.11,2.03
Florianopolis,75,BR,1571279160,100,-27.6,-48.55,73.0,3.36
Mao,75,DO,1571279162,88,19.55,-71.08,82.4,6.93
Williams Lake,90,CA,1571279165,61,52.13,-122.14,50.0,14.99
Oktyabrskoye,75,RU,1571279167,100,56.73,85.44,42.01,13.42
Ati,97,TD,1571279169,77,13.21,18.34,76.03,4.52
Balkanabat,0,TM,1571279171,31,39.51,54.36,56.91,2.91
Kaikalur,40,IN,1571279174,83,16.57,81.2,80.6,3.36
Galesong,20,ID,1571279176,46,-5.32,119.37,91.4,4.7
Bridlington,0,GB,1571279180,93,54.08,-0.19,45.0,3.36
Gizo,40,IL,1571279182,83,31.8,34.94,75.2,5.82
Gimli,72,CA,1571279184,93,50.63,-96.99,37.99,3.0
Gweta,0,BW,1571279187,39,-20.21,25.26,64.6,10.8
Karwar,71,IN,1571279189,78,14.8,74.13,80.35,4.3
Sorland,0,NO,1571279191,62,67.67,12.69,43.36,13.08
Qasigiannguit,100,GL,1571279194,58,68.82,-51.19,24.8,3.62
Geraldton,75,CA,1571279196,86,49.72,-86.95,37.4,5.82
Egvekinot,82,RU,1571279200,91,66.32,-179.17,24.12,12.14
Fort Frances,90,CA,1571279202,86,48.61,-93.4,39.99,3.36
Viedma,100,AR,1571279205,81,-40.81,-62.99,53.89,14.49
Xiangxiang,100,CN,1571279207,67,27.73,112.52,60.8,7.71
Tabou,100,CI,1571279209,95,4.42,-7.36,74.59,1.77
Luchegorsk,0,RU,1571279212,42,46.44,134.3,48.52,6.02
Massakory,50,TD,1571279214,69,13.0,15.73,80.35,7.56
Solnechnyy,0,RU,1571279216,35,50.72,136.64,43.32,3.19
Te Anau,31,NZ,1571279218,75,-45.41,167.72,48.72,4.88
Karatau,100,KZ,1571279220,86,43.18,70.46,53.01,3.0
Terre-de-Bas,96,GP,1571279223,78,15.85,-61.64,80.6,6.93
Gayeri,4,BF,1571279225,68,12.65,0.49,80.31,10.38
Rosetta,40,EG,1571279227,88,31.4,30.42,69.8,3.36
Jardin,100,FR,1571279230,72,45.5,4.91,60.8,13.87
Tilichiki,100,RU,1571279232,75,60.47,166.1,32.25,14.74
Havre-Saint-Pierre,40,CA,1571279236,77,50.23,-63.6,32.0,2.24
Jiguani,20,CU,1571279238,88,20.37,-76.43,77.0,1.12
Hays,1,US,1571279241,53,38.88,-99.33,53.6,9.17
Pontianak,23,ID,1571279243,54,-0.02,109.34,92.01,2.37
Port Hawkesbury,1,CA,1571279245,93,45.62,-61.36,46.99,5.82
Chazuta,40,PE,1571279247,100,-6.57,-76.13,62.6,4.7
Tezu,0,IN,1571279250,54,27.93,96.16,76.86,2.75
Aksarka,82,RU,1571279252,81,66.56,67.8,23.81,8.81
Xingcheng,92,CN,1571279256,22,40.62,120.71,63.36,3.98
Ritchie,0,ZA,1571279258,28,-29.03,24.6,73.4,9.17
Coquimbo,20,CL,1571279261,81,-29.95,-71.34,53.6,3.36
Palmetto,1,US,1571279263,76,33.52,-84.67,59.0,5.82
San Policarpo,20,PH,1571279265,68,12.18,125.51,84.31,10.62
Alofi,100,NU,1571279267,81,-19.06,-169.92,78.76,18.28
Surt,0,LY,1571279272,84,31.21,16.59,69.94,10.14
Broome,40,GB,1571279274,100,52.47,1.45,48.0,2.24
Marienburg,75,DE,1571279276,87,52.12,9.98,59.0,8.05
Turukhansk,100,RU,1571279278,92,65.8,87.96,28.8,6.02
Santa Isabel,1,MX,1571279281,16,32.63,-115.58,89.6,1.83
Divinopolis,8,BR,1571279283,67,-20.14,-44.88,68.61,4.4
Paramonga,74,PE,1571279285,92,-10.68,-77.82,60.96,10.92
Kasongo-Lunda,100,CD,1571279288,98,-6.48,16.82,66.96,1.93
Bergen,90,NO,1571279290,71,60.39,5.33,54.0,17.22
Fremont,75,US,1571279292,77,37.55,-121.99,68.0,5.82
Chernyshevskiy,100,RU,1571279295,97,63.01,112.47,38.62,6.36
Puerto Escondido,100,MX,1571279297,95,15.86,-97.07,68.7,3.22
Truth or Consequences,1,US,1571279299,31,33.13,-107.25,68.0,5.82
Comodoro Rivadavia,30,AR,1571279301,58,-45.87,-67.48,57.2,5.82
Maslovare,0,BA,1571279304,100,44.56,17.53,51.8,2.24
Salalah,51,OM,1571279306,74,17.01,54.1,80.6,3.36
Christchurch,74,NZ,1571279308,77,-43.53,172.64,60.01,10.29
Half Moon Bay,1,US,1571279310,87,37.46,-122.43,64.99,2.29
Lipin Bor,100,RU,1571279315,96,60.26,37.97,34.74,5.38
Itarema,9,BR,1571279317,80,-2.92,-39.92,76.86,10.87
Hovd,90,NO,1571279319,65,63.83,10.7,46.99,13.87
San Andres,0,PH,1571279321,59,13.32,122.68,87.73,5.7
Aklavik,20,CA,1571279324,85,68.22,-135.01,19.4,12.75
Sabang,91,PH,1571279326,73,13.8,121.11,84.99,5.01
Namatanai,100,PG,1571279330,71,-3.66,152.44,82.62,6.96
Lubao,100,CD,1571279335,97,-5.39,25.75,68.67,3.55
Am Timan,1,TD,1571279337,93,11.04,20.28,70.79,3.18
Sitka,0,US,1571279339,45,37.17,-99.65,55.99,11.01
Gobabis,78,NA,1571279341,30,-22.45,18.97,71.6,3.36
Abha,76,SA,1571279344,44,18.22,42.5,60.8,9.17
Idrinskoye,100,RU,1571279346,75,54.37,92.14,45.5,9.91
Assiniboia,0,CA,1571279348,62,49.63,-105.99,47.97,5.78
Pozo Colorado,2,PY,1571279350,82,-23.49,-58.8,69.21,3.99
Ballina,72,IE,1571279353,87,54.11,-9.15,52.0,11.01
Limon,1,US,1571279355,28,39.26,-103.69,57.99,13.53
Atar,64,MR,1571279357,38,20.52,-13.05,82.72,17.19
Pierreville,40,CA,1571279359,58,46.07,-72.81,55.4,10.29
Tymovskoye,100,RU,1571279362,58,50.85,142.66,37.6,10.72
Yzeure,90,FR,1571279364,72,46.57,3.36,59.0,5.82
Chino Valley,1,US,1571279366,25,34.76,-112.45,72.0,6.93
Ambala,5,IN,1571279368,88,30.38,76.77,71.6,4.19
Vangaindrano,63,MG,1571279370,94,-23.35,47.6,66.51,3.89
Bara,100,NG,1571279373,80,10.41,10.6,73.72,3.98
Madang,0,CN,1571279375,20,35.32,102.79,53.08,1.59
Karlskrona,100,SE,1571279377,100,56.16,15.59,51.8,1.12
Lilienthal,75,DE,1571279379,93,53.14,8.91,57.2,9.17
Daru,99,PG,1571279382,69,-9.07,143.21,81.55,7.04
Strelka,100,RU,1571279384,75,58.08,93.03,48.18,11.58
Yangambi,100,CD,1571279386,99,0.77,24.47,69.26,2.41
Luganville,40,VU,1571279388,65,-15.51,167.18,82.4,11.41
Elliot Lake,90,CA,1571279391,86,46.37,-82.65,41.0,17.22
Oskarshamn,100,SE,1571279393,100,57.26,16.44,50.0,10.29
Shingu,75,JP,1571279395,69,33.72,135.99,75.2,6.93
Garmsar,0,IR,1571279397,28,35.22,52.34,59.38,6.59
Husavik,72,CA,1571279400,93,50.56,-96.99,37.99,4.0
Baoshan,75,CN,1571279402,64,31.41,121.49,69.8,8.95
Cedar City,1,US,1571279405,17,37.68,-113.06,62.6,3.36
Saint Anthony,1,US,1571279407,21,43.97,-111.68,60.8,3.36
Souillac,90,FR,1571279411,87,45.6,-0.6,59.0,6.93
Thompson,90,CA,1571279414,90,55.74,-97.86,32.0,3.36
Pangnirtung,100,CA,1571279417,66,66.15,-65.72,30.2,9.06
Kavaratti,100,IN,1571279421,75,10.57,72.64,82.58,9.52
Itoman,20,JP,1571279423,74,26.12,127.67,86.0,9.17
Margate,40,AU,1571279426,62,-43.03,147.26,60.01,12.75
Tolmezzo,34,IT,1571279432,88,46.41,13.02,55.0,4.0
Acapulco,90,MX,1571279434,88,16.86,-99.88,77.0,4.83
Dongsheng,0,CN,1571279437,59,29.72,112.52,62.98,6.61
Tecoanapa,90,MX,1571279439,88,16.99,-99.26,77.0,0.88
Ratnagiri,19,IN,1571279441,78,16.98,73.3,79.86,5.17
Andrews,1,US,1571279443,33,32.32,-102.55,62.6,7.3
Fairbanks,75,US,1571279446,54,64.84,-147.72,30.2,4.7
Hofn,100,IS,1571279448,82,64.25,-15.21,45.25,42.09
Kupang,20,ID,1571279450,45,-10.16,123.6,87.8,5.82
Muisne,100,EC,1571279452,87,0.61,-80.02,74.79,6.2
Shimanovsk,0,RU,1571279459,45,52.0,127.67,47.55,4.06
Eureka,90,US,1571279461,87,40.8,-124.16,57.2,8.05
Barguzin,100,RU,1571279463,60,53.62,109.63,39.11,5.83
Klyuchi,0,RU,1571279466,73,52.25,79.17,40.96,12.43
Lalmohan,31,BD,1571279468,75,22.34,90.74,83.03,4.86
Mehamn,15,NO,1571279470,87,71.03,27.85,29.28,9.5
Chumikan,0,RU,1571279472,42,54.72,135.31,41.54,15.48
Rio Rancho,1,US,1571279474,18,35.27,-106.63,64.99,9.17
Mollendo,98,PE,1571279477,89,-17.03,-72.02,57.79,8.06
Basco,90,US,1571279481,75,40.33,-91.2,48.0,3.36
Gojo,75,JP,1571279483,60,34.35,135.7,71.6,4.7
Yarada,40,IN,1571279486,88,17.65,83.27,80.6,2.24
Lieksa,63,FI,1571279488,93,63.32,30.02,30.24,7.16
Mount Isa,15,AU,1571279490,13,-20.73,139.49,98.6,10.29
Longyearbyen,100,NO,1571279492,94,78.22,15.63,20.12,2.85
Sampit,99,ID,1571279495,56,-2.54,112.95,90.37,2.68
Renfrew,100,CA,1571279497,97,45.47,-76.68,51.01,3.0
Kizukuri,75,JP,1571279499,62,40.81,140.39,61.0,9.17
Macherla,62,IN,1571279501,84,16.48,79.44,78.46,1.4
Bathsheba,40,BB,1571279504,83,13.22,-59.52,80.6,3.36
Yoichi,75,JP,1571279506,54,43.19,140.77,54.0,12.75
Victoria,75,BN,1571279508,79,5.28,115.24,86.0,2.24
Villamontes,42,BO,1571279513,70,-21.26,-63.47,59.74,3.06
Kutum,100,SD,1571279515,73,14.2,24.66,70.5,1.68
San Pedro,100,AR,1571279517,94,-33.68,-59.66,60.01,1.01
Swift Current,40,CA,1571279519,60,50.29,-107.8,42.8,10.29
Mareeba,0,AU,1571279521,58,-16.99,145.42,90.0,6.93
Puerto Madero,75,AR,1571279524,93,-34.61,-58.36,62.01,17.22
Mackay,75,CA,1571279526,81,53.65,-115.58,44.6,4.7
Carupano,90,VE,1571279530,98,10.67,-63.26,72.21,2.23
Berdsk,75,RU,1571279533,87,54.76,83.11,42.8,11.18
Troitsko-Pechorsk,0,RU,1571279535,90,62.71,56.19,27.46,3.15
Tuy Hoa,100,VN,1571279537,80,13.08,109.3,81.1,15.64
Manggar,100,ID,1571279539,81,-2.88,108.27,81.41,13.38
Veraval,90,FR,1571279542,100,49.65,0.71,53.6,5.82
Outjo,42,NA,1571279544,22,-20.11,16.16,75.2,6.93
Ales,75,FR,1571279548,87,44.13,4.08,59.0,5.82
Longonjo,66,AO,1571279551,67,-12.91,15.25,61.57,1.83
Carballo,20,ES,1571279553,100,43.21,-8.69,62.01,6.93
Totma,100,RU,1571279555,95,59.98,42.76,35.47,3.79
Beringovskiy,44,RU,1571279557,74,63.05,179.32,37.54,11.0
Koslan,89,RU,1571279559,90,63.46,48.9,28.54,3.14
Masterton,100,NZ,1571279562,79,-40.95,175.66,61.0,8.01
Hobyo,78,SO,1571279564,78,5.35,48.53,78.76,3.23
Tomioka,94,JP,1571279566,57,36.26,138.87,69.01,5.01
Ilulissat,100,GL,1571279569,58,69.22,-51.1,24.8,3.62
Sistranda,75,NO,1571279571,75,63.73,8.83,46.99,16.11
Union de Reyes,20,CU,1571279573,100,22.8,-81.54,77.0,3.36
Qinggang,29,CN,1571279578,68,28.25,121.28,87.01,21.64
Shenjiamen,10,CN,1571279580,74,29.96,122.3,69.04,17.8
Leua,7,AO,1571279582,95,-11.65,20.45,63.05,1.36
Kalynivka,56,UA,1571279585,70,50.23,30.23,53.01,4.47
Elko,1,US,1571279587,22,40.83,-115.76,59.0,4.7
Isangel,75,VU,1571279589,61,-19.55,169.27,78.8,11.41
Prijepolje,90,RS,1571279591,76,43.39,19.65,53.6,2.24
Ambon,100,FR,1571279593,100,47.55,-2.56,55.99,3.36
San Cristobal,48,HN,1571279596,93,14.68,-86.92,66.96,3.38
Australind,87,AU,1571279598,38,-33.28,115.72,66.99,6.11
Trabzon,75,TR,1571279600,93,41.01,39.72,62.6,6.93
San Matias,56,BO,1571279603,62,-16.36,-58.4,78.96,5.2
Hasaki,75,JP,1571279605,68,35.73,140.83,70.0,8.05
Port Hardy,75,CA,1571279607,81,50.7,-127.42,50.0,10.29
Ulladulla,0,AU,1571279609,33,-35.36,150.48,71.6,28.86
Yeppoon,40,AU,1571279612,38,-23.13,150.74,89.6,11.41
Marsabit,100,KE,1571279614,69,2.34,37.99,74.3,19.74
Porto Novo,40,BR,1571279618,77,-23.68,-45.44,69.8,6.93
Camargo,71,MX,1571279621,75,27.69,-105.17,65.62,7.36
Nieuwpoort,20,BE,1571279623,93,51.13,2.75,53.01,6.93
Plettenberg Bay,0,ZA,1571279625,48,-34.05,23.37,66.97,3.63
Bosaso,100,SO,1571279627,78,11.28,49.18,82.47,10.34
Lodwar,71,KE,1571279630,52,3.12,35.6,81.66,11.55
Chino,75,JP,1571279634,67,35.99,138.16,66.99,2.24
Goderich,100,CA,1571279636,86,43.74,-81.71,45.0,1.01
Masallatah,68,LY,1571279638,79,32.62,14.0,67.86,3.58
Boda,96,CF,1571279641,95,4.32,17.47,67.75,0.73
Brae,100,GB,1571279643,100,60.4,-1.35,51.8,17.22
Santa Cruz de la Palma,30,ES,1571279645,60,28.68,-17.76,69.8,9.17
Xai-Xai,2,MZ,1571279647,94,-25.04,33.64,61.9,0.71
Sao Joao da Barra,0,BR,1571279650,86,-21.64,-41.05,73.17,15.66
Shangzhi,0,CN,1571279652,32,45.21,127.96,55.06,3.73
Athabasca,65,CA,1571279655,78,54.72,-113.29,43.61,8.6
Marawi,28,PH,1571279657,79,8.0,124.29,84.0,7.0
Tacoronte,75,ES,1571279661,77,28.48,-16.41,70.0,5.82
